,airport,freq,lon,lat,continent,country,sub
1,KMSY,3,-90.2590277777778,29.9932777777778,America,US,Louisiana
3,KFCI,4,-77.5248333333333,37.4064444444444,America,US,Virginia
4,71ME,3,-70.6011111111111,43.9669444444444,America,US,Maine
5,KLCI,4,-71.4178416666667,43.5730416666667,America,US,New Hampshire
7,KART,1,-76.0194166666667,43.9918333333333,America,US,New York
8,KDMW,1,-77.0076666666667,39.6082777777778,America,US,Maryland
9,KOWD,14,-71.1729444444445,42.1905277777778,America,US,Massachusetts
10,KATW,16,-88.5190722222222,44.2580930555556,America,US,Wisconsin
11,KOPF,240,-80.2782222222222,25.9074166666667,America,US,Florida
12,KACY,13,-74.5771666666667,39.4575833333333,America,US,New Jersey
14,KBED,232,-71.289,42.4699444444444,America,US,Massachusetts
15,KBIV,3,-86.1078333333333,42.7427777777778,America,US,Michigan
16,UKKM,1,30.1919002533,50.6035003662,Europe,UA,Kyiv
17,NK08,1,-74.1298888888889,41.8319138888889,America,US,New York
18,KLKU,1,-77.9701266666667,38.0098247222222,America,US,Virginia
19,KABE,30,-75.4404058333333,40.6523627777778,America,US,Pennsylvania
20,EGSS,30,0.2349999994,51.8849983215,Europe,GB,England
21,75PA,1,-80.4589577777778,41.8731111111111,America,US,Pennsylvania
22,LIRA,3,12.5949001312,41.7994003296,Europe,IT,Latium
23,40ME,2,-70.9559777777778,44.1058916666667,America,US,Maine
27,FL86,6,-82.0984252777778,26.5825755555556,America,US,Florida
28,KCOS,2,-104.700776388889,38.8058166666667,America,US,Colorado
29,1IN1,1,-86.6530583333333,39.48838,America,US,Indiana
30,VG20,1,-75.7099288888889,37.6751311111111,America,US,Virginia
31,KCDW,11,-74.2813502777778,40.8752247222222,America,US,New Jersey
32,KX14,12,-81.4282777777778,26.7405833333333,America,US,Florida
33,LIML,6,9.2767400742,45.445098877,Europe,IT,Lombardy
34,EGWU,1,-0.418166995,51.5530014038,Europe,GB,England
35,KVSF,1,-72.5172777777778,43.3437222222222,America,US,Vermont
36,77PA,7,-79.8997747222222,40.5834005555556,America,US,Pennsylvania
38,KFZY,1,-76.3880555555556,43.3507777777778,America,US,New York
40,5CT5,1,-73.2162222222222,41.6323055555556,America,US,Connecticut
41,MPRH,6,-80.128333,8.373333,America,PA,Coclé
42,KORL,31,-81.33293,28.5454616666667,America,US,Florida
43,EDDW,3,8.7866697311,53.0475006104,Europe,DE,Bremen
44,LFLM,1,4.7957701683,46.2951011658,Europe,FR,Bourgogne-Franche-Comte
45,1NK8,2,-75.841305,42.1917425,America,US,New York
46,53II,2,-84.8407958333333,41.0731044444444,America,US,Indiana
48,K39N,1,-74.6590063888889,40.3990888888889,America,US,New Jersey
49,LSZM,47,7.5299100876,47.5895996094,Europe,CH,Grand Est
51,KPSF,8,-73.2908398055555,42.4276201111111,America,US,Massachusetts
52,OTHH,551,51.6137665,25.2605946,Asia,QA,Baladiyat-ad-Dawḩah
53,KMJX,2,-74.2955347222222,39.9260416666667,America,US,New Jersey
55,KFGX,1,-83.7433766666667,38.5418172222222,America,US,Kentucky
56,KORD,3522,-87.9081497222222,41.9769402777778,America,US,Illinois
58,3NJ6,1,-74.8413333333333,40.0154722222222,America,US,New Jersey
60,KARR,1,-88.4756666666667,41.7719166666667,America,US,Illinois
61,KMTN,7,-76.4137777777778,39.3256666666667,America,US,Maryland
62,75MN,1,-93.7141166666667,44.1866333333333,America,US,Minnesota
63,KBOI,1,-116.222861111111,43.5643611111111,America,US,Idaho
64,HECA,1,31.4055995941,30.1219005585,Africa,EG,Cairo
66,26MI,1,-85.3780730555555,42.92392,America,US,Michigan
67,4TX8,1,-97.2239052777778,33.2487291666667,America,US,Texas
69,FD25,1,-80.4988444444444,27.5624694444444,America,US,Florida
70,GA20,1,-81.4627777777778,30.8111111111111,America,US,Georgia
72,MA86,1,-73.0598222222222,42.5056405555556,America,US,Massachusetts
75,69TA,1,-97.5252713888889,27.6550316666667,America,US,Texas
77,EETN,2,24.8327999115,59.4132995605,Europe,EE,Harjumaa
78,CT14,1,-72.6162011111111,41.8667647222222,America,US,Connecticut
80,KXNA,2,-94.3077655555555,36.2815791666667,America,US,Arkansas
81,TX32,1,-97.2433333333333,33.3763888888889,America,US,Texas
83,ENBR,5,5.2181401253,60.2933998108,Europe,NO,Hordaland
84,KFTW,9,-97.36245,32.8197702777778,America,US,Texas
86,KGPM,2,-97.0469166666667,32.6987777777778,America,US,Texas
87,KUUU,4,-71.2815439444444,41.53243975,America,US,Rhode Island
88,KHGR,5,-77.7265,39.7085,America,US,Maryland
92,K3HO,1,-87.2639222222222,41.5559,America,US,Indiana
93,KLNS,2,-76.2943611111111,40.1223611111111,America,US,Pennsylvania
94,KOAK,5,-122.221138888889,37.72125,America,US,California
95,50OH,1,-83.7446722222222,39.6803527777778,America,US,Ohio
96,KMSS,18,-74.8451197222222,44.9362411111111,America,US,New York
97,KFXE,89,-80.1707062777778,26.1972793611111,America,US,Florida
99,KCSG,1,-84.9388611111111,32.5163333333333,America,US,Georgia
100,31MA,2,-72.4086111111111,42.2619444444444,America,US,Massachusetts
102,LL78,1,-89.1509413888889,42.3116852777778,America,US,Illinois
104,KB19,2,-70.4723888888889,43.4641111111111,America,US,Maine
105,FD74,3,-80.9022825,28.0658511111111,America,US,Florida
107,EDHI,2,9.8355560303,53.5352783203,Europe,DE,Hamburg
108,CT36,1,-72.1973011111111,41.5645425,America,US,Connecticut
109,LFHH,11,4.8294401169,45.4641990662,Europe,FR,Auvergne-Rhone-Alpes
110,KLDJ,3,-74.2445941666667,40.6174494444444,America,US,New Jersey
111,54MI,1,-84.0830555555555,42.8102777777778,America,US,Michigan
113,KBDL,4,-72.6843158333333,41.9390322222222,America,US,Connecticut
114,KSDF,470,-85.7364936111111,38.174085,America,US,Kentucky
115,KCVG,321,-84.6678208333333,39.0488375,America,US,Kentucky
116,FD20,5,-81.4850766666667,26.8003419444444,America,US,Florida
118,KBKV,1,-82.4554166666667,28.4736111111111,America,US,Florida
119,KRZT,3,-83.0230555555556,39.4404166666667,America,US,Ohio
120,KHYI,2,-97.863,29.89275,America,US,Texas
122,KMPO,1,-75.3800555555555,41.1376944444444,America,US,Pennsylvania
123,KAUS,15,-97.6698761111111,30.1945272222222,America,US,Texas
124,57FA,1,-81.1192316666667,28.2086244444444,America,US,Florida
125,KSVN,1,-81.1459877777778,32.0100202777778,America,US,Georgia
126,KSDL,8,-111.910527777778,33.6228888888889,America,US,Arizona
127,7NK7,1,-75.5319444444444,42.7052777777778,America,US,New York
128,YSSY,2,151.1770019531,-33.9460983276,Australia,AU,New South Wales
130,92VA,1,-76.5644444444444,37.3447222222222,America,US,Virginia
131,KGYH,1,-82.3764166666667,34.7583055555556,America,US,South Carolina
132,KAZO,3,-85.5515555555556,42.2343888888889,America,US,Michigan
133,MBPV,34,-72.2658996582,21.7735996246,America,TC,
135,LEIB,1,1.3731199503,38.8728981018,Europe,ES,Balearic-Islands
136,TNCA,1,-70.0151977539,12.5013999939,America,AW,
139,28MA,5,-72.8181388888889,42.0798055555556,America,US,Massachusetts
140,ME91,7,-70.4956083333333,43.6750797222222,America,US,Maine
141,LL59,1,34.6907997131,31.8978996277,Asia,IL,
144,LGMK,2,25.3481006622,37.4351005554,Europe,GR,South Aegean
145,PN64,1,-77.9393611111111,40.5023888888889,America,US,Pennsylvania
146,20KY,3,-84.6711111111111,38.8169444444444,America,US,Kentucky
147,SC88,1,-81.7942686111111,35.1473455555556,America,US,South Carolina
148,MDBC,2,-68.9159011841,18.4797000885,America,DO,La Romana
149,2WN6,1,-90.4193011111111,44.5296841666667,America,US,Wisconsin
150,KSYR,39,-76.1063055555556,43.1111944444444,America,US,New York
151,SNEJ,4,-46.0374984741,-22.8597221375,America,BR,Minas Gerais
153,OMAA,3,54.6511001587,24.4330005646,Asia,AE,Abu Dhabi
154,KSWF,13,-74.1048333333333,41.5041111111111,America,US,New York
156,KLCK,40,-82.9278055555556,39.8137777777778,America,US,Ohio
157,KHEF,9,-77.5151011944444,38.7210230833333,America,US,Dist. Of Columbia
159,KIWA,4,-111.655459166667,33.3078238888889,America,US,Arizona
160,KLAS,574,-115.152234722222,36.0800438888889,America,US,Nevada
162,KLAX,1136,-118.408048611111,33.9424963888889,America,US,California
163,EGNX,151,-1.3280600309,52.8311004639,Europe,GB,England
165,KSPG,1,-82.6269738888889,27.7651138888889,America,US,Florida
168,KALB,116,-73.80198,42.7491161111111,America,US,New York
169,KBDR,13,-73.1261758333333,41.1634808333333,America,US,Connecticut
170,EGKK,213,-0.1902779937,51.1481018066,Europe,GB,England
171,KAVQ,2,-111.218388888889,32.4095555555556,America,US,Arizona
172,KF45,48,-80.2223333333333,26.8459166666667,America,US,Florida
174,KGFL,1,-73.6103055555556,43.3412222222222,America,US,New York
175,LEMD,147,-3.56676,40.4936,Europe,ES,Madrid
176,KITH,14,-76.4587222222222,42.4913611111111,America,US,New York
177,EGVO,1,-0.9428250194,51.2341003418,Europe,GB,England
178,KJWN,1,-86.8864953333333,36.1830218333333,America,US,Tennessee
179,57ME,1,-70.8544444444444,43.9177777777778,America,US,Maine
181,PA53,1,-75.5282402777778,41.6270261111111,America,US,Pennsylvania
182,EGAA,2,-6.2158298492,54.6575012207,Europe,GB,Northern Ireland
184,KLKP,3,-73.9618694444444,44.2644777777778,America,US,New York
185,4TE6,2,-97.7951638888889,31.8388166666667,America,US,Texas
187,SC72,1,-82.1464166666667,34.8244722222222,America,US,South Carolina
189,KSBN,2,-86.3173375,41.7082238888889,America,US,Indiana
190,KCMH,67,-82.8921591666667,39.9969466666667,America,US,Ohio
193,KLOT,1,-88.0963897222222,41.6080969444444,America,US,Illinois
194,KMDW,146,-87.7524166666667,41.7859722222222,America,US,Illinois
195,KSGS,1,-93.0328611111111,44.8571388888889,America,US,Minnesota
196,ETAR,1,7.600279808,49.4369010925,Europe,DE,Rheinland-Pfalz
197,KAPA,42,-104.849293055556,39.5701186111111,America,US,Colorado
198,OMDB,8,55.3643989563,25.2527999878,Asia,AE,Dubai
199,KTMB,4,-80.4332246111111,25.6475637222222,America,US,Florida
202,32PN,1,-80.275895,40.7339547222222,America,US,Pennsylvania
204,KIMM,1,-81.4004781666667,26.4337121666667,America,US,Florida
206,EFHK,4,24.963300705,60.317199707,Europe,FI,Uusimaa
207,78MI,12,-83.3035413888889,42.0405994444444,America,US,Michigan
208,LFHV,18,4.634931,45.919983,Europe,FR,Auvergne-Rhone-Alpes
209,KSUU,1,-121.924131472222,38.2645366666667,America,US,California
210,PN01,2,-79.9058861111111,40.5881227777778,America,US,Pennsylvania
211,LFPO,218,2.3594400883,48.7252998352,Europe,FR,Ile-de-France
212,IA56,2,-93.3793758333333,41.7805433333333,America,US,Iowa
218,OJAI,1,35.9931983948,31.7226009369,Asia,JO,Amman
219,KNKX,1,-117.143188388889,32.8685289722222,America,US,California
222,KAFW,1,-97.3194405555555,32.9903858333333,America,US,Texas
223,KROC,25,-77.6718688888889,43.1191436111111,America,US,New York
225,KRIC,48,-77.3197386111111,37.5051811111111,America,US,Virginia
226,CT13,3,-71.8161816666667,41.8834313888889,America,US,Connecticut
228,MN92,1,-92.3001911111111,46.7499422222222,America,US,Minnesota
229,1MU2,2,-94.6643825,39.4450183333333,America,US,Missouri
231,2MD3,3,-77.3453333333333,39.229,America,US,Maryland
232,KJHW,3,-79.2580230555556,42.1533938888889,America,US,New York
233,EKBI,2,9.1517801285,55.7402992249,Europe,DK,South Denmark
234,KBGM,3,-75.9796111111111,42.2084444444444,America,US,New York
235,KDKK,3,-79.2711111111111,42.4939444444444,America,US,New York
238,GOBD,4,-17.066944,14.671111,Africa,SN,M'bour
240,KMCI,3,-94.7138888888889,39.2976111111111,America,US,Missouri
241,KTTN,25,-74.8134722222222,40.2766944444444,America,US,New Jersey
243,LFRE,1,-2.3463900089,47.2893981934,Europe,FR,Pays-de-la-Loire
244,KMDT,20,-76.7626191666667,40.1931916666667,America,US,Pennsylvania
245,KSGF,2,-93.3886388888889,37.2456666666667,America,US,Missouri
247,KS50,1,-122.226655111111,47.3276248611111,America,US,Washington
250,KBJC,6,-105.117194444444,39.9088055555556,America,US,Colorado
251,KSDM,4,-116.980166666667,32.5722777777778,America,US,California
252,AL16,3,-86.7236022222222,33.7267680555556,America,US,Alabama
255,VA16,16,-77.4844338888889,38.8792788888889,America,US,Virginia
257,07KY,11,-85.6932925,38.0806225,America,US,Kentucky
259,KFTY,23,-84.521366,33.7791263888889,America,US,Georgia
261,47FD,5,-81.7706388888889,26.6628488888889,America,US,Florida
262,KMZJ,8,-111.325333333333,32.5098333333333,America,US,Arizona
263,KEDC,6,-97.5663935,30.3974931388889,America,US,Texas
266,KDAL,23,-96.8508766666667,32.8459447222222,America,US,Texas
267,FD57,3,-80.4164411111111,27.46976,America,US,Florida
268,FA51,2,-81.5061883333333,26.7389552777778,America,US,Florida
269,KBAK,4,-85.8963388888889,39.261915,America,US,Indiana
271,KMGJ,2,-74.2635391666667,41.5118116666667,America,US,New York
272,KLEE,1,-81.8084175,28.8228980555556,America,US,Florida
273,NTAA,1,-149.606994629,-17.5536994934,Pacific,PF,Iles-du-Vent
275,EGLM,1,-0.774443984,51.5008010864,Europe,GB,
277,59NC,1,-79.5553019444444,36.0973575,America,US,North Carolina
278,KFSD,2,-96.741925,43.5820180555556,America,US,South Dakota
280,LSTZ,1,7.3805599213,46.5525016785,Europe,CH,Bern
281,K1R8,3,-87.8193333333333,30.8703333333333,America,US,Alabama
283,LCLK,1,33.6249008179,34.8750991821,Asia,CY,Larnaka
284,ID27,1,-116.859361111111,47.7554591666667,America,US,Idaho
286,15ME,1,-70.2291666666667,43.8152777777778,America,US,Maine
288,KAUW,1,-89.62700175,44.9262845277778,America,US,Wisconsin
289,EDDF,865,8.543129921,50.0264015198,Europe,DE,Hesse
290,KCON,2,-71.5022777777778,43.2027222222222,America,US,New Hampshire
291,PS52,1,-78.8327997222222,40.1950769444444,America,US,Pennsylvania
292,5CT7,2,-72.2961944444444,41.3023333333333,America,US,Connecticut
293,KCRQ,27,-117.280083333333,33.12825,America,US,California
294,MA55,1,-70.2994644444444,41.3348436111111,America,US,Massachusetts
295,NH84,1,-71.2211555555556,43.2075888888889,America,US,New Hampshire
296,YMML,3,144.8430023193,-37.6733016968,Australia,AU,Victoria
297,KMKE,25,-87.8970644444445,42.9469319444444,America,US,Wisconsin
298,KUMP,1,-86.0450677222222,39.9353984722222,America,US,Indiana
299,EGMC,3,0.695555985,51.5713996887,Europe,GB,England
300,FL95,4,-80.45283,27.7086411111111,America,US,Florida
303,KTHV,2,-76.8730277777778,39.917,America,US,Pennsylvania
304,KMSP,489,-93.2217777777778,44.8819722222222,America,US,Minnesota
305,03MA,9,-72.5520322222222,42.3931447222222,America,US,Massachusetts
306,KMRT,1,-83.3516330555556,40.2244997222222,America,US,Ohio
308,K5B2,2,-73.8616388888889,43.0507222222222,America,US,New York
309,KFFO,1,-84.0461028333333,39.8259705277778,America,US,Ohio
310,KCGF,6,-81.4872222222222,41.5645833333333,America,US,Ohio
311,04FA,1,-80.5150572222222,25.5587191666667,America,US,Florida
312,56NC,1,-82.0319444444444,35.2066666666667,America,US,North Carolina
313,EDFH,1,7.2638897896,49.9486999512,Europe,DE,Rheinland-Pfalz
314,2KY4,1,-85.8136111111111,37.655,America,US,Kentucky
315,KPJC,1,-80.1608611111111,40.8019722222222,America,US,Pennsylvania
316,KRDU,307,-78.7874722222222,35.8776388888889,America,US,North Carolina
317,2NC1,111,-80.8016416666667,34.9974388888889,America,US,North Carolina
318,KNGU,1,-76.2892780555556,36.9374686111111,America,US,Virginia
321,EGTK,3,-1.3200000525,51.8368988037,Europe,GB,England
322,KBNA,143,-86.6781805555556,36.124475,America,US,Tennessee
323,PA84,1,-76.9092611111111,39.9538194444444,America,US,Pennsylvania
324,8WI6,1,-87.6528708333333,44.6097180555556,America,US,Wisconsin
325,4KS1,1,-95.0330227777778,38.6852875,America,US,Kansas
327,KX26,1,-80.4955833333333,27.81325,America,US,Florida
331,06TE,1,-95.0272847222222,30.3129583333333,America,US,Texas
332,EDDN,3,11.0669002533,49.4986991882,Europe,DE,Bayern
333,2NY9,1,-76.7224508333333,42.3700733333333,America,US,New York
334,KPAE,1,-122.282093888889,47.9073180555556,America,US,Washington
335,49OH,1,-83.2363986111111,39.9354513888889,America,US,Ohio
336,KOKC,1,-97.6007617222222,35.3930740277778,America,US,Oklahoma
337,EKAH,1,10.6190004349,56.2999992371,Europe,DK,Central Jutland
338,RJAA,24,140.3860015869,35.7647018433,Asia,JP,Chiba
339,KOSH,20,-88.5570430555556,43.9843708333333,America,US,Wisconsin
341,KI67,2,-84.7743055555556,39.2592686111111,America,US,Ohio
342,25OH,1,-81.2598280555556,40.9131136111111,America,US,Ohio
344,KFWN,1,-74.6230352777778,41.2002138888889,America,US,New Jersey
347,KBWI,88,-76.6689911111111,39.1757283333333,America,US,Maryland
348,KEWB,23,-70.9578361111111,41.6765661111111,America,US,Massachusetts
349,LIPZ,170,12.3519001007,45.5052986145,Europe,IT,Veneto
350,LEZG,1,-1.0415500402,41.6661987305,Europe,ES,Aragon
351,LIPY,1,13.3622999191,43.6162986755,Europe,IT,The Marches
354,KDLZ,3,-83.1133836111111,40.2795421388889,America,US,Ohio
356,LFPG,2815,2.5499999523,49.0127983093,Europe,FR,Ile-de-France
357,6NY1,1,-77.0894141666667,42.1128516666667,America,US,New York
359,SNGA,1,-40.4919013977,-20.6464996338,America,BR,Espírito Santo
360,6FL3,2,-81.5670222222222,26.9372811111111,America,US,Florida
361,KAKR,3,-81.4676847222222,41.0374236111111,America,US,Ohio
362,KNZY,26,-117.21311,32.6981961111111,America,US,California
364,KRME,8,-75.4070258333333,43.2337994444444,America,US,New York
368,EPWA,1,20.9671001434,52.1656990051,Europe,PL,Mazovia
369,KZER,1,-76.3737502777778,40.7067508333333,America,US,Pennsylvania
372,KHPN,348,-73.7075661111111,41.0669530555556,America,US,New York
375,NK01,1,-75.604915,43.9995122222222,America,US,New York
376,LFHN,30,5.8061099052,46.1241989136,Europe,FR,Auvergne-Rhone-Alpes
379,EDLV,1,6.1421699524,51.6024017334,Europe,DE,Nordrhein-Westfalen
380,LBSF,4,23.4114360809,42.6966934204,Europe,BG,Sofia-Capital
381,KDXR,3,-73.4821894444444,41.3715344444444,America,US,Connecticut
382,KSCK,1,-121.23874,37.8944102777778,America,US,California
384,KMSV,1,-74.7950277777778,41.7016388888889,America,US,New York
385,KAXV,6,-84.2980833333333,40.4935555555556,America,US,Ohio
386,KMAL,1,-74.3289444444444,44.8536666666667,America,US,New York
387,KRSW,7,-81.7551666666667,26.5361666666667,America,US,Florida
388,8NK6,1,-75.1683333333333,42.7130555555556,America,US,New York
389,LEAL,1,-0.5581560135,38.2821998596,Europe,ES,Valencia
391,KALO,1,-92.4010233333333,42.5584491666667,America,US,Iowa
392,CT96,1,-72.9712152777778,41.7084313888889,America,US,Connecticut
394,KHHR,26,-118.335083333333,33.9228611111111,America,US,California
396,LIPE,7,11.2887001038,44.5354003906,Europe,IT,Emilia Romagna
398,KBCT,49,-80.1076963888889,26.3784855555556,America,US,Florida
399,KCYO,1,-82.9821388888889,39.516,America,US,Ohio
400,EDDG,1,7.6848301888,52.134601593,Europe,DE,Nordrhein-Westfalen
401,LFHJ,33,4.9136099815,45.6542015076,Europe,FR,Auvergne-Rhone-Alpes
402,KHUF,1,-87.30699,39.4506319444444,America,US,Indiana
403,KWWD,1,-74.9085088888889,39.0083694444444,America,US,New Jersey
404,KFMY,12,-81.8632469444444,26.586615,America,US,Florida
405,SBGL,2,-43.2505569458,-22.8099994659,America,BR,Rio de Janeiro
407,FD83,17,-81.3839594444445,28.2586233333333,America,US,Florida
408,VT31,1,-72.44399,44.1111741666667,America,US,Vermont
409,KCHA,7,-85.2035555555556,35.0351944444444,America,US,Tennessee
410,MMJC,3,-99.2888031006,19.5748004913,America,MX,Mexico
412,IN60,1,-86.1602675,40.0178152777778,America,US,Indiana
413,FL88,10,-81.4497986111111,26.6836794444444,America,US,Florida
414,KCID,2,-91.7107986111111,41.8846885833333,America,US,Iowa
415,KCLT,639,-80.9490555555556,35.21375,America,US,North Carolina
416,EDDS,1,9.2219600677,48.6898994446,Europe,DE,Baden-Württemberg
417,IN58,1,-86.2629236111111,39.5013347222222,America,US,Indiana
418,GMMN,788,-7.5899701118,33.3675003052,Africa,MA,
419,21XS,1,-95.2752136111111,29.5196786111111,America,US,Texas
420,KMCF,6,-82.5212194444444,27.8493444444444,America,US,Florida
422,MN77,2,-96.7156336111111,46.9235736111111,America,US,Minnesota
424,MM28,5,-98.9436035156,19.8740005493,America,MX,Morelos
425,OA19,3,-81.3121361111111,40.8901,America,US,Ohio
426,LFRS,20,-1.610730052,47.1531982422,Europe,FR,Pays-de-la-Loire
427,KRDG,1,-75.9652472222222,40.3784986111111,America,US,Pennsylvania
428,KLUK,24,-84.4186111111111,39.1033333333333,America,US,Ohio
430,MMUN,431,-86.8770980835,21.0365009308,America,MX,Quintana Roo
432,KRZN,1,-92.3736930555555,45.8234638888889,America,US,Wisconsin
434,K0G7,4,-76.7811666666667,42.8835555555556,America,US,New York
436,61OH,2,-81.2095455555556,41.1981116666667,America,US,Ohio
437,K0B8,3,-72.0316388888889,41.2521388888889,America,US,New York
438,KMKC,5,-94.5928333333333,39.1229444444444,America,US,Missouri
439,48WI,1,-89.7301458333333,45.7938433333333,America,US,Wisconsin
440,KT54,1,-95.7797583333333,29.5233305555556,America,US,Texas
441,KBLI,1,-122.537527777778,48.7926944444444,America,US,Washington
442,LTFM,168,28.752,41.275333,Europe,TR,Istanbul
443,KGPI,1,-114.256,48.3105,America,US,Montana
444,KAGC,4,-79.9290466666667,40.3544376388889,America,US,Pennsylvania
445,17FA,5,-81.5353558333333,26.7134011111111,America,US,Florida
447,KJST,1,-78.8346666666667,40.3155555555556,America,US,Pennsylvania
448,MGGT,58,-90.5274963379,14.5832996368,America,GT,Guatemala
449,KSRQ,24,-82.5543888888889,27.3954444444444,America,US,Florida
450,KTUS,2,-110.941013888889,32.1160691666667,America,US,Arizona
454,KFWA,1,-85.1951666666667,40.9784722222222,America,US,Indiana
457,KLEB,12,-72.3041944444444,43.6261111111111,America,US,New Hampshire
458,6IN6,1,-86.4766666666667,39.5488888888889,America,US,Indiana
459,LEZL,1,-5.8931097984,37.4179992676,Europe,ES,Andalusia
460,KFRG,73,-73.4134205555556,40.7292744444444,America,US,New York
461,0MI4,1,-87.3865283333333,46.2702227777778,America,US,Michigan
462,KBOS,1563,-71.0063888888889,42.3629444444444,America,US,Massachusetts
463,KFDK,2,-77.3747322222222,39.4170211111111,America,US,Maryland
464,KGED,1,-75.3593044444444,38.6876327777778,America,US,Delaware
465,EGLL,1091,-0.4619410038,51.4706001282,Europe,GB,England
466,KESN,3,-76.0689902777778,38.80416,America,US,Maryland
467,25SC,1,-82.3373888888889,34.9606388888889,America,US,South Carolina
468,LFBP,1,-0.41861099,43.3800010681,Europe,FR,Nouvelle-Aquitaine
470,PANC,29,-149.9981375,61.1740847222222,America,US,Alaska
471,TJSJ,22,-66.0021333333333,18.4393991666667,America,US,Puerto Rico
473,KDEN,542,-104.673166666667,39.8616666666667,America,US,Colorado
474,FA54,1,-82.2526027777778,26.8537416666667,America,US,Florida
477,EGCC,4,-2.2749500275,53.3536987305,Europe,GB,England
478,EVRA,4,23.9710998535,56.9235992432,Europe,LV,Marupe
479,5GA4,1,-84.4485397222222,34.1059313888889,America,US,Georgia
483,KPTD,1,-74.9484444444444,44.6766666666667,America,US,New York
485,LIRF,469,12.2508001328,41.8045005798,Europe,IT,Latium
486,VOMM,1,80.1692962646,12.9900054932,Asia,IN,Tamil-Nadu
487,TLPC,1,-60.992901,14.0202,America,LC,Castries
488,EBLG,2,5.4432201385,50.6374015808,Europe,BE,Wallonia
489,KGYY,9,-87.4145277777778,41.61725,America,US,Indiana
490,KBTV,42,-73.1532761111111,44.471955,America,US,Vermont
491,KFSO,17,-73.0974722222222,44.9402777777778,America,US,Vermont
492,FL59,6,-81.7103597222222,26.643405,America,US,Florida
493,LFLL,143,5.0908298492,45.726398468,Europe,FR,Auvergne-Rhone-Alpes
494,KBKL,12,-81.6826388888889,41.5178611111111,America,US,Ohio
496,KOMA,17,-95.8940555555556,41.3031666666667,America,US,Nebraska
497,KVJI,1,-82.0333266944444,36.6871025277778,America,US,Virginia
499,KRFD,10,-89.0972222222222,42.1953611111111,America,US,Illinois
500,FA18,2,-81.0202777777778,26.4441666666667,America,US,Florida
501,KMQY,2,-86.5200897222222,36.0089702777778,America,US,Tennessee
504,LPPT,681,-9.1359195709,38.7812995911,Europe,PT,Lisbon
505,LPCS,1,-9.3552303314,38.7249984741,Europe,PT,Lisbon
507,KSEA,249,-122.311777777778,47.4498888888889,America,US,Washington
508,LJLJ,1,14.4575996399,46.2237014771,Europe,SI,Cerklje-na-Gorenjskem
511,LFBD,166,-0.7155560255,44.8283004761,Europe,FR,Nouvelle-Aquitaine
512,KLGA,4348,-73.8726111111111,40.77725,America,US,New York
514,LOWW,283,16.5697002411,48.1102981567,Europe,AT,Lower-Austria
515,MMHO,7,-111.047996521,29.0958995819,America,MX,Sonora
516,KMIA,1343,-80.2901158333333,25.7953611111111,America,US,Florida
518,KDDH,1,-73.2460833333333,42.8911944444444,America,US,Vermont
519,EDDB,5,13.500667,52.362167,Europe,DE,Brandenburg
520,VIDP,254,77.1031036377,28.5664997101,Asia,IN,NCT
521,K20A,1,-86.3803888888889,33.9712777777778,America,US,Alabama
522,SC24,1,-82.9136111111111,34.6716666666667,America,US,South Carolina
524,KBFI,10,-122.301944444444,47.5299722222222,America,US,Washington
525,KTYS,6,-83.9940672222222,35.8110911111111,America,US,Tennessee
526,KUZA,25,-81.0571666666667,34.9878333333333,America,US,South Carolina
527,NC05,6,-80.7942380555556,35.40875,America,US,North Carolina
529,KRST,4,-92.5000277777778,43.9082777777778,America,US,Minnesota
530,2NH5,1,-72.4016666666667,42.9902777777778,America,US,New Hampshire
531,KCLE,1,-81.8546911111111,41.4094069444444,America,US,Ohio
533,KBVY,4,-70.9161388888889,42.5841388888889,America,US,Massachusetts
534,71MI,98,-83.5172222222222,42.0844444444444,America,US,Michigan
535,MPHO,2,-79.5996017456,8.9147901535,America,PA,Panama
536,KBTP,1,-79.9510833333333,40.7765833333333,America,US,Pennsylvania
537,RKSI,18,126.4509963989,37.4691009521,Asia,KR,Incheon
539,KHWO,20,-80.2407222222222,26.0012222222222,America,US,Florida
540,KOAJ,5,-77.6121388888889,34.8291666666667,America,US,North Carolina
542,GA53,1,-84.3718705555555,33.8151047222222,America,US,Georgia
545,KSOP,1,-79.3890336111111,35.2374225,America,US,North Carolina
546,PN66,1,-79.3636488888889,40.4256233333333,America,US,Pennsylvania
547,TBPB,108,-59.4925003052,13.0746002197,America,BB,Christ-Church
548,SBGR,7,-46.4730567932,-23.4355564117,America,BR,São Paulo
550,08FA,1,-81.4836886111111,26.5797947222222,America,US,Florida
551,KBEH,1,-86.4248811111111,42.1283808333333,America,US,Michigan
552,EGHI,1,-1.3567999601,50.9502983093,Europe,GB,England
554,KTOL,3,-83.8078266666667,41.5868166666667,America,US,Ohio
556,OERK,1,46.6987991333,24.9575996399,Asia,SA,
557,SC43,2,-82.3990122222222,34.5937258333333,America,US,South Carolina
558,02XS,3,-97.6627791666667,30.1477130555556,America,US,Texas
559,KPNE,11,-75.0105775,40.0819388888889,America,US,Pennsylvania
561,71KY,57,-84.8727280555556,39.0347805555556,America,US,Kentucky
562,2GA9,1,-83.9997222222222,33.8091666666667,America,US,Georgia
563,4FA3,1,-82.1178697222222,26.6434066666667,America,US,Florida
564,KVPC,1,-84.8487066666667,34.1231475,America,US,Georgia
565,KTOI,1,-86.0138888888889,31.86,America,US,Alabama
566,KHWV,2,-72.8669072222222,40.8219541666667,America,US,New York
568,EKCH,8,12.6560001373,55.6179008484,Europe,DK,Capital-Region
569,KELM,1,-76.8917456666667,42.1598561388889,America,US,New York
570,KTUL,6,-95.8881055555556,36.1983936111111,America,US,Oklahoma
572,KTNU,1,-93.0217283333333,41.67443,America,US,Iowa
573,KMCO,1326,-81.309,28.4293888888889,America,US,Florida
575,LFMF,7,6.7027797699,43.6088981628,Europe,FR,Provence-Alpes-Cote-d'Azur
576,LIRP,1,10.3927001953,43.6838989258,Europe,IT,Tuscany
578,KSGJ,1,-81.3397291666667,29.9592502777778,America,US,Florida
579,KSFM,2,-70.708,43.3938055555556,America,US,Maine
580,BIKF,81,-22.6056003571,63.9850006104,Atlantic,IS,Southern Peninsula
581,SEAS,1,-78.2833328247,-0.0833332986,America,EC,Pichincha
582,LKKB,1,14.5436000824,50.1213989258,Europe,CZ,Praha
583,KPDK,36,-84.3020305555555,33.8760019444444,America,US,Georgia
584,25GA,3,-84.6629888888889,33.6595538888889,America,US,Georgia
585,6AR1,1,-94.1966,36.2779083333333,America,US,Arkansas
588,LPPR,92,-8.6813898087,41.2481002808,Europe,PT,Porto
589,LIMG,5,8.1274299622,44.0505981445,Europe,IT,Liguria
590,EHRD,4,4.4372200966,51.9569015503,Europe,NL,South Holland
591,KAXQ,1,-79.4421666666667,41.2249444444444,America,US,Pennsylvania
592,KTNT,1,-80.897,25.8618055555556,America,US,Florida
593,1XS1,17,-95.0464833333333,29.9382791666667,America,US,Texas
594,EGGP,1,-2.8497200012,53.3335990906,Europe,GB,England
595,LFMY,4,5.1092500687,43.6063995361,Europe,FR,Provence-Alpes-Cote-d'Azur
596,SPJC,1,-77.1143035889,-12.021900177,America,PE,Callao
597,PN18,4,-80.2436730555556,42.0272786111111,America,US,Pennsylvania
598,MA80,1,-72.8142627777778,42.1198147222222,America,US,Massachusetts
599,LGKN,7,23.9510993958,38.1377983093,Europe,GR,Attica
600,LS76,1,-90.1700794444445,30.4626925,America,US,Louisiana
601,KAXH,1,-95.4769166666667,29.5061388888889,America,US,Texas
602,LDDU,1,18.2681999207,42.5614013672,Europe,HR,Dubrovacko-Neretvanska
604,KCEF,1,-72.5347866666667,42.1940155555556,America,US,Massachusetts
605,KMIV,3,-75.0722222222222,39.3678055555556,America,US,New Jersey
606,MT54,1,-114.244294722222,48.2438505555556,America,US,Montana
607,94FL,2,-81.8973083333333,26.7328463888889,America,US,Florida
608,7TS4,1,-96.0459722222222,32.0561666666667,America,US,Texas
610,KRUT,2,-72.9496261111111,43.5297302777778,America,US,Vermont
611,MDPC,53,-68.3634033203,18.5673999786,America,DO,La Altagracia
613,1CA6,1,-116.722520555556,32.7650541666667,America,US,California
614,4FL3,1,-80.6661675,27.7416958333333,America,US,Florida
615,KAPC,5,-122.280687222222,38.2131891666667,America,US,California
617,KSUS,16,-90.6520555555556,38.6621111111111,America,US,Missouri
619,KORH,9,-71.8756111111111,42.2671388888889,America,US,Massachusetts
620,MDBE,4,-69.0553970337,18.5867996216,America,DO,El-Seibo
623,KINT,2,-80.2219877222222,36.1337138055556,America,US,North Carolina
624,21NH,1,-70.9352777777778,42.9169444444444,America,US,New Hampshire
625,KMVY,15,-70.6138744444444,41.3934175,America,US,Massachusetts
627,KPDX,6,-122.596869416667,45.5887088611111,America,US,Oregon
628,KUGN,20,-87.8679161111111,42.4221486111111,America,US,Illinois
629,06FA,4,-80.3284140277778,26.9081530555556,America,US,Florida
630,EGKB,8,0.0324999988,51.3307991028,Europe,GB,England
631,VT01,4,-72.9373419444445,44.2825558333333,America,US,Vermont
632,KCWA,1,-89.6667780277778,44.7776236666667,America,US,Wisconsin
633,LOLW,1,14.0409002304,48.1833000183,Europe,AT,Upper-Austria
635,KAPF,1,-81.7756391944444,26.1524408055556,America,US,Florida
636,KW32,1,-76.9328169444445,38.7482613888889,America,US,Maryland
638,K02C,2,-88.1794444444444,43.0896388888889,America,US,Wisconsin
640,KTYQ,4,-86.2514444444444,40.0306666666667,America,US,Indiana
641,SKMA,5,-74.2754,4.7278,America,CO,Cundinamarca
642,89IN,1,-86.3897158333333,39.5069919444444,America,US,Indiana
643,JY43,1,-74.3385555555555,41.0832222222222,America,US,New Jersey
644,K63B,2,-70.6724722222222,43.7630277777778,America,US,Maine
645,KSNA,2,-117.868233055556,33.6756619444444,America,US,California
646,SAEZ,2,-58.5358,-34.8222,America,AR,Buenos-Aires
647,MI13,1,-85.0616666666667,43.1616666666667,America,US,Michigan
648,KPWK,60,-87.9015408333333,42.1142794444444,America,US,Illinois
650,KIAG,27,-78.9458466666667,43.1075573611111,America,US,New York
653,FL90,1,-82.2200947222222,26.6034086111111,America,US,Florida
654,MA88,6,-72.9309311111111,42.3900869444444,America,US,Massachusetts
655,KMRB,3,-77.983,39.4023577777778,America,US,West Virginia
656,KDTW,1887,-83.3533888888889,42.2124444444445,America,US,Michigan
657,LLBG,127,34.8866996765,32.0113983154,Asia,IL,Central District
658,KGRR,26,-85.5228055555555,42.8808333333333,America,US,Michigan
659,88VT,21,-73.3502777777778,44.8783333333333,America,US,Vermont
662,KEEN,1,-72.2707777777778,42.8983888888889,America,US,New Hampshire
663,TS35,2,-94.9780555555556,30.0583333333333,America,US,Texas
664,KWAL,1,-75.4663888888889,37.9401944444444,America,US,Virginia
665,GA35,2,-81.3966666666667,32.1575,America,US,Georgia
666,KPVG,4,-76.4512803611111,36.7807648055556,America,US,Virginia
667,KPTK,38,-83.4205056388889,42.6656361944444,America,US,Michigan
672,KHFD,1,-72.6494444444445,41.7367222222222,America,US,Connecticut
674,36AL,1,-85.5342777777778,31.4928888888889,America,US,Alabama
678,KBHM,1,-86.7523055555556,33.5638888888889,America,US,Alabama
679,EDDP,3,12.2416000366,51.4323997498,Europe,DE,Saxony
680,KGEG,1,-117.535222222222,47.6190277777778,America,US,Washington
682,VT42,1,-72.6070583333333,44.5125527777778,America,US,Vermont
683,FD30,1,-80.5261658333333,27.4114288888889,America,US,Florida
684,OK94,1,-95.8032222222222,36.3545763888889,America,US,Oklahoma
685,KLWM,4,-71.1235333333333,42.7170422222222,America,US,Massachusetts
686,VT30,2,-72.8340036111111,44.1625594444444,America,US,Vermont
687,42VT,1,-73.1501611111111,44.3668861111111,America,US,Vermont
688,KCRG,2,-81.5144444444445,30.3363333333333,America,US,Florida
689,KBLV,1,-89.8351855555556,38.5451730555556,America,US,Illinois
691,KFFT,1,-84.9067497777778,38.1817316944444,America,US,Kentucky
692,EGKR,70,-0.1386110038,51.2136001587,Europe,GB,England
693,EICK,1,-8.491109848,51.8413009644,Europe,IE,Munster
694,KFAR,6,-96.81575,46.9206388888889,America,US,North Dakota
695,K7B2,15,-72.6112402777778,42.3280097222222,America,US,Massachusetts
696,KADS,1,-96.8364444444444,32.9685555555556,America,US,Texas
697,KOQU,1,-71.4121388888889,41.5971388888889,America,US,Rhode Island
698,KJEF,1,-92.1561447222222,38.5911736111111,America,US,Missouri
699,EGLF,22,-0.7763329744,51.2757987976,Europe,GB,England
701,KEWR,3130,-74.1686867777778,40.6924798333333,America,US,New Jersey
702,KISM,1,-81.4370813888889,28.2898069444444,America,US,Florida
703,KSTL,22,-90.3700257222222,38.7486982222222,America,US,Missouri
704,KOXC,3,-73.1351825,41.4782805555556,America,US,Connecticut
705,SKBO,89,-74.1469,4.70159,America,CO,Bogota-D-C-
707,II43,2,-86.1922277777778,41.7500480555556,America,US,Indiana
708,KLZU,1,-83.9623638888889,33.9780919444444,America,US,Georgia
710,MMMX,114,-99.0720977783,19.4363002777,America,MX,Mexico City
711,02AR,1,-93.6965,34.1169444444444,America,US,Arkansas
713,MMMA,2,-97.5252990723,25.7698993683,America,MX,Tamaulipas
714,4VA8,3,-77.2958111111111,37.6137555555556,America,US,Virginia
715,59NY,4,-78.6900325,43.2306122222222,America,US,New York
716,KRNO,4,-119.768111111111,39.4991111111111,America,US,Nevada
717,KSFZ,1,-71.4914166666667,41.92075,America,US,Rhode Island
718,01FL,3,-81.1592277777778,28.7819361111111,America,US,Florida
719,KBTL,6,-85.2500889444444,42.3064728055556,America,US,Michigan
720,KPHF,1,-76.4929722222222,37.1318888888889,America,US,Virginia
721,UUWW,1,37.2615013123,55.5914993286,Europe,RU,Moscow
722,KPVC,2,-70.2207222222222,42.0722777777778,America,US,Massachusetts
723,LFNR,26,5.1783299446,43.5377998352,Europe,FR,Provence-Alpes-Cote-d'Azur
724,65LA,1,-90.0222927777778,29.8660394444444,America,US,Louisiana
725,KCMI,1,-88.2765391666667,40.0385608333333,America,US,Illinois
726,03ME,2,-70.6272827777778,44.0842372222222,America,US,Maine
727,FA24,2,-80.6122222222222,27.0933333333333,America,US,Florida
728,LTBA,3,28.8145999908,40.9768981934,Europe,TR,Istanbul
729,AZ63,2,-111.195833333333,32.5277777777778,America,US,Arizona
731,IS59,1,-88.9241666666667,42.1338888888889,America,US,Illinois
733,KVNY,29,-118.489972222222,34.2098055555556,America,US,California
734,KVRB,8,-80.4179444444444,27.6555555555556,America,US,Florida
735,EIKY,1,-9.5237798691,52.1809005737,Europe,IE,Munster
736,88PA,6,-80.4131202777778,40.5392333333333,America,US,Pennsylvania
739,KDWH,88,-95.5527884166667,30.0617791111111,America,US,Texas
740,SDVH,1,-46.6347236633,-23.0041675568,America,BR,São Paulo
741,NY94,2,-73.8645555555556,41.9698333333333,America,US,New York
743,LHKE,2,19.7492008209,46.9174995422,Europe,HU,Bacs-Kiskun
746,MA43,18,-72.9001,42.0723155555556,America,US,Massachusetts
748,GMME,1,-6.7515201569,34.0514984131,Africa,MA,
750,KIND,344,-86.2946388888889,39.7173055555556,America,US,Indiana
751,KDAW,1,-70.9295495,43.2842348333333,America,US,New Hampshire
752,89NY,10,-75.8996733333333,44.3167172222222,America,US,New York
753,KCXY,2,-76.8513611111111,40.2171388888889,America,US,Pennsylvania
754,KYIP,16,-83.5314616666667,42.2402738888889,America,US,Michigan
758,KJAX,1,-81.6878466666667,30.4940455555556,America,US,Florida
760,EDDH,3,9.9882297516,53.6304016113,Europe,DE,Hamburg
762,4IL3,1,-89.2284391666667,42.1428019444444,America,US,Illinois
763,KABQ,1,-106.608262166667,35.0389315555556,America,US,New Mexico
765,KIXD,2,-94.8903055555556,38.8309166666667,America,US,Kansas
767,KSBM,7,-87.8517222222222,43.7697777777778,America,US,Wisconsin
768,BIRK,21,-21.9405994415,64.1299972534,Atlantic,IS,Capital Region
769,OA16,79,-84.7816666666667,39.1561111111111,America,US,Ohio
773,LL39,1,-88.4777777777778,41.2575,America,US,Illinois
774,OH22,1,-81.7790222222222,40.7611666666667,America,US,Ohio
775,LGAV,202,23.9444999695,37.9364013672,Europe,GR,Attica
777,0VA9,1,-76.4538366666667,37.4473605555556,America,US,Virginia
778,KWST,2,-71.8034168333333,41.3496329722222,America,US,Rhode Island
779,EINN,24,-8.9248199463,52.7019996643,Europe,IE,Munster
780,KSJC,12,-121.928620555556,37.3629947222222,America,US,California
781,4NY0,3,-73.5462477777778,44.6689319444444,America,US,New York
784,KHFF,1,-79.4975130555556,35.0363016666667,America,US,North Carolina
785,GA95,6,-84.5021502777778,33.5262238888889,America,US,Georgia
787,KN66,1,-75.0644722222222,42.5247777777778,America,US,New York
788,31II,1,-84.9051972222222,38.9120861111111,America,US,Indiana
789,KGAI,6,-77.166,39.1683333333333,America,US,Maryland
790,KTPA,119,-82.53325,27.9754722222222,America,US,Florida
791,88WI,6,-87.8606530555555,44.5083269444444,America,US,Wisconsin
792,EGSC,1,0.174999997,52.2050018311,Europe,GB,England
793,05IN,22,-86.5041641666667,39.6419908333333,America,US,Indiana
794,8KY6,14,-84.5682777777778,38.9355277777778,America,US,Kentucky
795,06MO,1,-94.8044058333333,39.2305575,America,US,Missouri
797,MDAN,2,-70.2216033936,19.1315994263,America,DO,Sanchez-Ramirez
800,LSGG,376,6.1089501381,46.2380981445,Europe,CH,Geneva
801,78ME,8,-70.2591666666667,43.7530555555556,America,US,Maine
802,KIKK,1,-87.8462777777778,41.0713888888889,America,US,Illinois
804,EDMO,7,11.2831001282,48.081401825,Europe,DE,Bayern
805,9NC9,2,-79.8950358333333,36.2101355555556,America,US,North Carolina
807,KPBG,96,-73.4681388888889,44.6509444444444,America,US,New York
809,KOSU,3,-83.0732127777778,40.0795155555556,America,US,Ohio
810,SBBP,3,-46.5375,-22.979167,America,BR,São Paulo
811,VA12,1,-79.7969805555555,36.6468041666667,America,US,Virginia
812,KNRS,1,-117.1135255,32.5661596111111,America,US,California
813,MA36,1,-70.8529666666667,42.6664825,America,US,Massachusetts
815,OJAM,46,35.9916000366,31.972700119,Asia,JO,Amman
816,EDGS,1,8.0829696655,50.707698822,Europe,DE,Nordrhein-Westfalen
817,K3MY,1,-89.6134722222222,40.7958055555556,America,US,Illinois
819,KSLC,6,-111.977773333333,40.7883933333333,America,US,Utah
820,KLNA,68,-80.0850646111111,26.5930555555556,America,US,Florida
821,TLPL,1,-60.952599,13.7332,America,LC,Vieux-Fort
822,3NK5,22,-73.4652777777778,44.6166666666667,America,US,New York
825,KN71,1,-76.5743552777778,40.0922066666667,America,US,Pennsylvania
826,KSFB,17,-81.2349138888889,28.7771780555556,America,US,Florida
827,OI69,1,-81.1670441666667,41.7783797222222,America,US,Ohio
830,EHAM,487,4.7638897896,52.3086013794,Europe,NL,North Holland
833,KFAY,1,-78.8802741666667,34.9912111111111,America,US,North Carolina
834,EDDM,424,11.7861003876,48.3538017273,Europe,DE,Bayern
835,KLIT,2,-92.2247772222222,34.7294413888889,America,US,Arkansas
836,KSUA,19,-80.2212933333333,27.1816991666667,America,US,Florida
837,KDPA,18,-88.247995,41.9070530555556,America,US,Illinois
838,EBBR,436,4.4844398499,50.9014015198,Europe,BE,Flanders
839,71NC,1,-79.4497222222222,36.2633333333333,America,US,North Carolina
840,FL35,4,-82.4877777777778,28.175,America,US,Florida
841,EGJB,1,-2.6019699574,49.4350013733,Europe,GG,Forest
842,KMHT,35,-71.43575,42.9328055555556,America,US,New Hampshire
846,VT38,10,-73.2466666666667,45.0091666666667,America,US,Vermont
847,KPHX,127,-112.011583333333,33.4342777777778,America,US,Arizona
849,KREI,1,-117.146388888889,34.08525,America,US,California
850,KPMP,106,-80.1112075,26.2474005555556,America,US,Florida
852,58KY,1,-85.3325555555556,38.1216583333333,America,US,Kentucky
854,II32,1,-87.3813986111111,38.0492111111111,America,US,Indiana
855,KCMA,1,-119.094354166667,34.2137583333333,America,US,California
857,KFAF,2,-76.6089356666667,37.1326090555556,America,US,Virginia
859,YMEN,1,144.9019927979,-37.728099823,Australia,AU,Victoria
860,KOJC,2,-94.7375838888889,38.8475977777778,America,US,Kansas
861,KDCA,802,-77.0377213888889,38.8514402777778,America,US,Dist. Of Columbia
864,KSCH,5,-73.9295644444445,42.8527183333333,America,US,New York
866,2MI5,3,-85.4864113888889,42.9416963888889,America,US,Michigan
868,KJYO,3,-77.5575,39.0779722222222,America,US,Virginia
869,CO14,1,-105.666111111111,37.4219444444444,America,US,Colorado
870,II85,1,-85.0491352777778,40.8961586111111,America,US,Indiana
872,LFGJ,1,5.4272499084,47.0390014648,Europe,FR,Bourgogne-Franche-Comte
873,9MI2,3,-83.307625,41.98785,America,US,Michigan
874,KOCF,2,-82.2241146388889,29.1718767777778,America,US,Florida
875,KFPR,8,-80.3726388888889,27.4974722222222,America,US,Florida
876,KJQF,2,-80.7091325,35.3877702777778,America,US,North Carolina
878,KOGS,15,-75.46325,44.68225,America,US,New York
879,NJ25,1,-75.2283472222222,39.7896833333333,America,US,New Jersey
880,KLNN,2,-81.38975,41.6840277777778,America,US,Ohio
881,FL84,1,-81.5703730555555,30.6010702777778,America,US,Florida
882,KDVT,1,-112.082555555556,33.6883055555556,America,US,Arizona
883,LPFR,1,-7.9659099579,37.0144004822,Europe,PT,Faro
886,SDTB,6,-46.57472229,-23.1277770996,America,BR,São Paulo
887,LEGE,1,2.7605500221,41.9010009766,Europe,ES,Catalonia
890,SBMT,99,-46.6377983093,-23.5090999603,America,BR,São Paulo
891,KDET,18,-83.0101738888889,42.4093275,America,US,Michigan
892,LFHC,126,5.1872200966,45.8697013855,Europe,FR,Auvergne-Rhone-Alpes
893,KFME,2,-76.7594144444444,39.0853866666667,America,US,Maryland
894,VT52,92,-73.1876313888889,44.6433797222222,America,US,Vermont
895,KCGS,1,-76.9223055555556,38.9805833333333,America,US,Maryland
896,KBUR,2,-118.358666666667,34.2006944444444,America,US,California
900,41KS,1,-94.7973333333333,38.7355,America,US,Kansas
901,KPVD,12,-71.4277222222222,41.7223333333333,America,US,Rhode Island
902,KSDC,2,-77.1194638888889,43.2345975,America,US,New York
904,MI23,1,-83.8666666666667,43.3469444444444,America,US,Michigan
907,EGNT,1,-1.6916699409,55.0374984741,Europe,GB,England
908,MMTJ,7,-116.9700012207,32.5410995483,America,MX,Baja California Sur
909,KIAD,2067,-77.4599444444444,38.9474444444444,America,US,Dist. Of Columbia
912,OI41,2,-81.1561944444445,41.294,America,US,Ohio
913,K4G8,1,-81.9604418333333,41.3186801944444,America,US,Ohio
916,KMLB,9,-80.64525,28.10275,America,US,Florida
917,WS17,5,-88.5784463888889,43.9894280555556,America,US,Wisconsin
918,7FA8,1,-83.8582583333333,30.5256,America,US,Florida
919,KLRD,1,-99.4615833333333,27.5441944444444,America,US,Texas
921,2CN8,1,-117.151388888889,34.3041666666667,America,US,California
922,LSZB,2,7.4971499443,46.914100647,Europe,CH,Bern
923,LD57,1,15.1632003784,44.2099990845,Europe,HR,Zadarska
924,7MI8,1,-83.4761111111111,43.3391666666667,America,US,Michigan
925,KU42,1,-111.992889166667,40.6195466666667,America,US,Utah
926,CT32,4,-71.8345152777778,41.5353766666667,America,US,Connecticut
928,KJZP,1,-84.4572222222222,34.4534722222222,America,US,Georgia
932,KFOK,104,-72.6318119444444,40.8436186111111,America,US,New York
935,DABC,1,6.6203899384,36.2760009766,Africa,DZ,Constantine
936,KARB,5,-83.7457088333333,42.2229275555556,America,US,Michigan
939,MDMA,27,-68.799099,18.501933,America,DO,La Altagracia
941,KRMY,1,-84.9554443055556,42.2511931666667,America,US,Michigan
942,KTTA,2,-79.1013377777778,35.5824394444444,America,US,North Carolina
943,EGTE,1,-3.4138898849,50.7344017029,Europe,GB,England
944,LSZS,1,9.8841104507,46.5340995789,Europe,CH,Grisons
945,VOBL,1,77.7062988281,13.1978998184,Asia,IN,Karnataka
948,KT51,2,-95.6672230555556,30.0427752777778,America,US,Texas
949,KDFW,780,-97.0376947222222,32.8972330555556,America,US,Texas
950,KPIT,87,-80.2326944444444,40.4914166666667,America,US,Pennsylvania
951,KSAN,104,-117.189663333333,32.7335627777778,America,US,California
952,LIBD,3,16.7605991364,41.1389007568,Europe,IT,Apulia
955,KHTW,1,-82.4948333333333,38.4191111111111,America,US,Ohio
956,KDAB,4,-81.0580422222222,29.1799088888889,America,US,Florida
957,MI29,1,-83.79272,42.3764247222222,America,US,Michigan
958,15NC,1,-76.9738888888889,36.2397222222222,America,US,North Carolina
962,SBBR,1,-47.9208335876,-15.8691673279,America,BR,Federal-District
963,KLOU,1,-85.6637490555556,38.2279840277778,America,US,Kentucky
964,KLSE,1,-91.2566336111111,43.8792656666667,America,US,Wisconsin
965,KJFK,61,-73.7786925,40.6399277777778,America,US,New York
966,54ME,2,-70.3202777777778,43.9494444444444,America,US,Maine
967,FD38,31,-80.2950666666667,26.6467083333333,America,US,Florida
970,KACK,13,-70.0599114166667,41.2529750555556,America,US,Massachusetts
971,KAKH,62,-81.1498758333333,35.2026230555556,America,US,North Carolina
972,KEFK,6,-72.2286352777778,44.8881755555556,America,US,Vermont
974,TVSV,1,-61.210899353,13.1443004608,America,VC,Saint-George
975,40FL,1,-81.8709416666667,26.9525805555556,America,US,Florida
977,KGTB,2,-75.7198944444444,44.0556111111111,America,US,New York
979,KRYY,8,-84.5970277777778,34.0131666666667,America,US,Georgia
980,KUAO,1,-122.770055555556,45.2471388888889,America,US,Oregon
982,MMSM,1,-99.0164031982,19.7553005219,America,MX,Mexico
983,LSZH,423,8.5491695404,47.4646987915,Europe,CH,Zurich
984,MI39,3,-85.8391083333333,42.8522361111111,America,US,Michigan
985,VT15,46,-73.2459638888889,44.7039330555556,America,US,Vermont
986,EGGW,19,-0.3683330119,51.8746986389,Europe,GB,England
987,KILG,23,-75.606635,39.6787097222222,America,US,Delaware
988,86MI,63,-83.5674366666667,42.1528186111111,America,US,Michigan
990,EDDK,21,7.1427397728,50.8658981323,Europe,DE,Nordrhein-Westfalen
991,MPTO,108,-79.3834991455,9.0713596344,America,PA,Panama
992,4NC6,1,-82.4820833333333,35.4413055555556,America,US,North Carolina
996,24ME,8,-70.4427777777778,43.8222222222222,America,US,Maine
997,KPSP,3,-116.506694444444,33.8296666666667,America,US,California
998,KPHL,2065,-75.2406630555556,39.8720838888889,America,US,Pennsylvania
999,KDAY,15,-84.2194122222222,39.9022522222222,America,US,Ohio
1001,94NY,1,-76.6913372222222,42.8250686111111,America,US,New York
1002,KBUF,151,-78.7305697222222,42.9404272222222,America,US,New York
1003,ME26,27,-69.5338194444444,46.0195861111111,America,US,Maine
1004,KPYM,1,-70.727685,41.9086175,America,US,Massachusetts
1005,VG22,2,-78.8935583333333,37.8788194444444,America,US,Virginia
1006,K2W5,1,-77.0724583333333,38.5970486111111,America,US,Maryland
1008,LPPD,4,-25.6979007721,37.7411994934,Atlantic,PT,Azores
1009,K55Y,1,-91.830095,43.815825,America,US,Minnesota
1011,DAAG,348,3.2154099941,36.6910018921,Africa,DZ,Algiers
1012,KISP,14,-73.1006650555556,40.7961356944444,America,US,New York
1013,EGCN,3,-1.0106563568,53.4805378105,Europe,GB,England
1015,OTBD,2,51.5651016235,25.261100769,Asia,QA,Baladiyat-ad-Dawḩah
1016,TXKF,59,-64.6787033081,32.3639984131,Atlantic,BM,Saint-Georgeʼs
1017,KGON,11,-72.0451388888889,41.3300555555556,America,US,Connecticut
1019,LEBL,317,2.0784599781,41.2971000671,Europe,ES,Catalonia
1020,LFHW,14,4.7147197723,46.1427993774,Europe,FR,Auvergne-Rhone-Alpes
1021,LFML,181,5.2214241028,43.439271922,Europe,FR,Provence-Alpes-Cote-d'Azur
1023,KLBE,2,-79.4103255555556,40.2731005,America,US,Pennsylvania
1024,KTPF,2,-82.4493888888889,27.9154444444444,America,US,Florida
1025,KMOD,1,-120.95443,37.6258247222222,America,US,California
1026,LFVP,3,-56.1730995178,46.7629013062,America,PM,
1027,KTEB,1337,-74.0608333333333,40.8501111111111,America,US,New Jersey
1029,LIMC,182,8.7281103134,45.6305999756,Europe,IT,Lombardy
1031,LPAR,57,-9.0300998688,38.8833007813,Europe,PT,Lisbon
1032,KWHP,12,-118.413433055556,34.2593252777778,America,US,California
1035,KOKV,1,-78.1444444444444,39.1435277777778,America,US,Virginia
1037,MMHC,1,-97.4198989868,18.4972000122,America,MX,Puebla
1038,EGPH,5,-3.3724999428,55.9500007629,Europe,GB,Scotland
1041,KJAU,1,-84.1629652777778,36.3340888888889,America,US,Tennessee
1042,KIAH,338,-95.3414425,29.9844352777778,America,US,Texas
1043,KHOU,37,-95.2772315833333,29.6457998333333,America,US,Texas
1044,KSBY,4,-75.5094780555556,38.3401894444444,America,US,Maryland
1045,CT52,1,-73.2912277777778,41.3681511111111,America,US,Connecticut
1046,FD08,12,-80.1497666666667,26.4653513888889,America,US,Florida
1049,MMPC,5,-98.7825012207,20.0774002075,America,MX,Hidalgo
1050,KMMU,63,-74.4148886111111,40.7993383333333,America,US,New Jersey
1051,FA69,1,-80.6372791666667,26.5878475,America,US,Florida
1054,RJGG,1,136.8049926758,34.8583984375,Asia,JP,Aichi
1055,KVVS,3,-79.6574166666667,39.9590555555556,America,US,Pennsylvania
1056,LFFI,15,-1.1775000095,47.4081001282,Europe,FR,Pays-de-la-Loire
1057,KPSM,73,-70.8232777777778,43.0779444444444,America,US,New Hampshire
1058,ENGM,7,11.100399971,60.193901062,Europe,NO,Akershus
1059,VT25,3,-73.1662369444444,44.4167172222222,America,US,Vermont
1060,VT26,93,-73.3067975,44.6344897222222,America,US,Vermont
1061,6FD6,1,-81.4331233333333,28.9049886111111,America,US,Florida
1062,WV65,1,-80.0113888888889,39.4492522222222,America,US,West Virginia
1066,91IN,1,-85.9747222222222,39.2080555555556,America,US,Indiana
1068,LFPB,39,2.4413900375,48.9693984985,Europe,FR,Ile-de-France
1069,KERI,36,-80.1739444444444,42.0830833333333,America,US,Pennsylvania
1070,MMPB,5,-98.3713989258,19.1581001282,America,MX,Puebla
1072,KHYA,12,-70.2803591666667,41.6693372222222,America,US,Massachusetts
1073,1FD4,1,-81.6073030555555,26.4453566666667,America,US,Florida
1074,EIDW,133,-6.270070076,53.4212989807,Europe,IE,Leinster
1075,5NY1,1,-74.9062702777778,42.3998030555556,America,US,New York
1077,KPGD,1,-81.9908861111111,26.9185925,America,US,Florida
1078,95FD,9,-81.5388888888889,26.7683333333333,America,US,Florida
1079,KX10,3,-80.6602444444444,26.6981888888889,America,US,Florida
1080,VT45,22,-72.9792936111111,44.5172727777778,America,US,Vermont
1081,3TX2,1,-97.3489077777778,33.0806775,America,US,Texas
1082,RJAK,7,140.1929931641,36.0346984863,Asia,JP,Ibaraki
1084,KAIO,1,-95.04875,41.4038333333333,America,US,Iowa
1086,KUCP,1,-80.4133627777778,41.0253330555556,America,US,Pennsylvania
1088,1NK6,1,-73.749585,44.4236577777778,America,US,New York
1090,KGVL,1,-83.8302261111111,34.2726263888889,America,US,Georgia
1092,KMQJ,3,-85.8977355555556,39.8431377777778,America,US,Indiana
1093,4VA9,1,-77.9205508333333,38.5690116666667,America,US,Virginia
1095,KNUQ,4,-122.049129166667,37.4161438888889,America,US,California
1096,MI27,1,-83.854115,42.6125319444444,America,US,Michigan
1097,KHVN,16,-72.8877291666667,41.2637247222222,America,US,Connecticut
1099,NY60,39,-73.5593041666667,44.7625405555556,America,US,New York
1100,LEMG,88,-4.4991102219,36.6749000549,Europe,ES,Andalusia
1101,42OH,2,-81.0039813888889,41.15589,America,US,Ohio
1102,LFRZ,9,-2.1491799355,47.3121986389,Europe,FR,Pays-de-la-Loire
1104,CT48,4,-71.9253505555556,41.4367652777778,America,US,Connecticut
1106,KSLK,8,-74.2061813888889,44.3853080555556,America,US,New York
1107,KGHG,1,-70.6730198611111,42.0974988333333,America,US,Massachusetts
1108,1PN1,1,-80.4206236111111,41.3342219444444,America,US,Pennsylvania
1109,LOWL,2,14.1875,48.2332000732,Europe,AT,Upper-Austria
1110,KGRB,21,-88.1297133333333,44.4846336111111,America,US,Wisconsin
1111,LFBO,164,1.3638199568,43.6291007996,Europe,FR,Occitanie
1113,KCOF,1,-80.6099780555555,28.2350066666667,America,US,Florida
1114,KBMG,4,-86.6166804722222,39.1460208333333,America,US,Indiana
1115,KSAV,21,-81.2021388888889,32.1275833333333,America,US,Georgia
1116,KSEE,1,-116.972444444444,32.8262222222222,America,US,California
1117,KFUL,1,-117.979784166667,33.8720141666667,America,US,California
1118,KBMI,1,-88.9159166666667,40.4771111111111,America,US,Illinois
1119,EBMB,150,4.4844444444,50.901389,Europe,BE,Flanders
1120,KUES,4,-88.2370555555556,43.0410277777778,America,US,Wisconsin
1121,K0I8,1,-84.2833444444444,38.3661638888889,America,US,Kentucky
1122,IG07,10,-85.0355555555555,39.0569444444444,America,US,Indiana
1123,KY47,8,-83.6237013888889,42.5031238888889,America,US,Michigan
1124,KMLI,6,-90.5075277777778,41.4482777777778,America,US,Illinois
1125,EGPF,3,-4.4330601692,55.8718986511,Europe,GB,Scotland
1127,NY24,3,-78.9700419444444,43.1278333333333,America,US,New York
1129,MA52,1,-71.4701333333333,42.4380583333333,America,US,Massachusetts
1131,KPWM,15,-70.3086163611111,43.6456435,America,US,Maine
1133,ESSA,5,17.9186000824,59.6519012451,Europe,SE,Stockholm
1134,LMML,6,14.4775,35.857498,Europe,MT,Luqa
1135,KHSV,3,-86.7750541666667,34.6371969444444,America,US,Alabama
1137,OBBS,1,50.5905990601,25.9183998108,Asia,BH,
1138,LKPR,2,14.2600002289,50.1007995605,Europe,CZ,Praha
1139,KRAC,7,-87.8139166666667,42.7611666666667,America,US,Wisconsin
1140,KASH,1,-71.5140944444444,42.7824138888889,America,US,New Hampshire
1141,PN40,6,-79.8975516666667,42.1842236111111,America,US,Pennsylvania
1142,TA07,2,-94.9668708333333,30.0071622222222,America,US,Texas
1143,LFMN,203,7.2158699036,43.6584014893,Europe,FR,Provence-Alpes-Cote-d'Azur
1145,KOIC,5,-75.5241111111111,42.5665555555556,America,US,New York
1146,EBCI,4,4.4538202286,50.4592018127,Europe,BE,Wallonia
1147,07VT,2,-72.9147222222222,44.4472222222222,America,US,Vermont
1148,LPBJ,5,-7.9324002266,38.0788993835,Europe,PT,Beja
1149,8OI3,2,-80.6689663888889,41.3733888888889,America,US,Ohio
1150,VT46,16,-73.28652,44.8719855555556,America,US,Vermont
1152,PAED,1,-149.806525666667,61.2513531944444,America,US,Alaska
1153,KPBI,139,-80.0955919444444,26.6831616666667,America,US,Florida
1154,KPIA,5,-89.69325,40.6641944444444,America,US,Illinois
1155,EPGD,1,18.4661998749,54.3776016235,Europe,PL,Pomerania
1156,MDSD,3,-69.6688995361,18.4297008514,America,DO,Nacional
1157,TJIG,3,-66.0984722222222,18.4567777777778,America,US,Puerto Rico
1158,MPMG,47,-79.5556030273,8.9733400345,America,PA,Panama
1159,KAVL,2,-82.5420475,35.4361130555556,America,US,North Carolina
1162,LJCE,1,15.5302000046,45.9000015259,Europe,SI,Brezice
1163,LFKL,22,4.6977801323,45.7117004395,Europe,FR,Auvergne-Rhone-Alpes
1164,KCLW,3,-82.7590569444444,27.9772138888889,America,US,Florida
1166,88NY,1,-78.3583558333333,43.1578363888889,America,US,New York
1167,KFLL,1738,-80.1496944444444,26.0716666666667,America,US,Florida
1169,EDXW,1,8.340470314,54.9132003784,Europe,DE,Schleswig-Holstein
1170,24CT,2,-71.9668833333333,41.5668861111111,America,US,Connecticut
1174,KSGR,1,-95.6565341666667,29.6222486111111,America,US,Texas
1176,CT19,2,-72.5398091666667,41.9681522222222,America,US,Connecticut
1179,6NJ9,5,-75.3746352777778,39.7917797222222,America,US,New Jersey
1180,NC37,1,-79.8411469444444,36.3401363888889,America,US,North Carolina
1181,KATL,1756,-84.427864,33.6366996111111,America,US,Georgia
1184,KSFO,1065,-122.375416666667,37.6188055555556,America,US,California
1185,K06C,26,-88.1012427777778,41.9893408333333,America,US,Illinois
1186,KSTP,14,-93.0603424444444,44.9346225,America,US,Minnesota
1187,KGSP,1,-82.2188594444444,34.8956711111111,America,US,South Carolina
1188,58IN,1,-84.8638516666667,41.2583833333333,America,US,Indiana
1190,4KY7,4,-84.6847222222222,38.8233333333333,America,US,Kentucky
1191,KFCM,9,-93.4585833333333,44.8275,America,US,Minnesota
1193,MDBG,299,-68.7378005981,18.6315994263,America,DO,La Altagracia
1194,NK79,1,-74.5330555555555,41.4066666666667,America,US,New York
1195,GA43,2,-81.4266666666667,32.3213888888889,America,US,Georgia
1196,KPHN,8,-82.5288497222222,42.9109586111111,America,US,Michigan
1197,OH07,3,-81.2389930555556,40.9439469444444,America,US,Ohio
1198,KBIS,2,-100.7457375,46.7727338888889,America,US,North Dakota
1199,MDJB,5,-69.9856033325,18.5725002289,America,DO,Santo-Domingo
1200,9GA1,1,-81.3369444444444,32.4488888888889,America,US,Georgia
1201,KTIX,1,-80.7992222222222,28.5148055555556,America,US,Florida
1203,KN52,1,-80.7479833333333,34.8638166666667,America,US,North Carolina
1204,KMQS,3,-75.8654722222222,39.9789722222222,America,US,Pennsylvania
1205,KSMQ,1,-74.6700316111111,40.6259806388889,America,US,New Jersey
1207,KBWG,2,-86.4196666666667,36.9645277777778,America,US,Kentucky
1209,KSAT,15,-98.4690569444444,29.5339583333333,America,US,Texas
1211,KN23,1,-75.4159722222222,42.3025833333333,America,US,New York
1213,KPIE,17,-82.68651,27.9086336111111,America,US,Florida
1214,LEPA,2,2.7388100624,39.551700592,Europe,ES,Balearic-Islands
1215,VT22,1,-73.2670713888889,44.4014388888889,America,US,Vermont
1216,2NK3,3,-72.2665638888889,41.1516861111111,America,US,New York
1217,LFPE,1,2.8352799416,48.9277992249,Europe,FR,Ile-de-France
1218,LSMP,2,6.9150600433,46.8432006836,Europe,CH,Vaud
1219,KJVY,1,-85.7381447222222,38.3666183333333,America,US,Indiana
1221,EGNS,1,-4.6238899231,54.0833015442,Europe,IM,Castletown
1222,KDLL,1,-89.77125,43.5220277777778,America,US,Wisconsin
1224,53IN,1,-86.2149947222222,40.5214269444444,America,US,Indiana
1225,90NY,2,-77.2427777777778,42.9195083333333,America,US,New York
1226,EGBB,8,-1.7480299473,52.4538993835,Europe,GB,England
1228,MMCZ,7,-86.9255981445,20.5223999023,America,MX,Quintana Roo
1229,KAGS,3,-81.9645,33.3699444444444,America,US,Georgia
1230,KBLM,12,-74.1245555555555,40.1867777777778,America,US,New Jersey
1231,ELLX,4,6.211520195,49.6265983582,Europe,LU,Luxembourg
1233,OI62,9,-81.3170525,41.4764411111111,America,US,Ohio
