,airport,lon,lat,country,sub
0,,,,,
1,KBVY,-70.9161388888889,42.5841388888889,US,Massachusetts
2,KXNA,-94.3077655555555,36.2815791666667,US,Arkansas
3,KDLL,-89.77125,43.5220277777778,US,Wisconsin
5,AZ63,-111.195833333333,32.5277777777778,US,Arizona
6,KCLE,-81.8546911111111,41.4094069444444,US,Ohio
8,VG20,-75.7099288888889,37.6751311111111,US,Virginia
9,EGBB,-1.7480299473,52.4538993835,GB,England
10,NY94,-73.8645555555556,41.9698333333333,US,New York
11,ELLX,6.211520195,49.6265983582,LU,Luxembourg
13,KGPM,-97.0469166666667,32.6987777777778,US,Texas
15,K3MY,-89.6134722222222,40.7958055555556,US,Illinois
16,KMOD,-120.95443,37.6258247222222,US,California
17,KRME,-75.4070258333333,43.2337994444444,US,New York
19,EDLV,6.1421699524,51.6024017334,DE,Nordrhein-Westfalen
21,KNUQ,-122.049129166667,37.4161438888889,US,California
22,KDDH,-73.2460833333333,42.8911944444444,US,Vermont
23,MMUN,-86.8770980835,21.0365009308,MX,Quintana Roo
24,KSAV,-81.2021388888889,32.1275833333333,US,Georgia
25,KHFF,-79.4975130555556,35.0363016666667,US,North Carolina
27,01FL,-81.1592277777778,28.7819361111111,US,Florida
28,KARR,-88.4756666666667,41.7719166666667,US,Illinois
29,CT48,-71.9253505555556,41.4367652777778,US,Connecticut
30,KRNO,-119.768111111111,39.4991111111111,US,Nevada
32,ENBR,5.2181401253,60.2933998108,NO,Hordaland
33,05IN,-86.5041641666667,39.6419908333333,US,Indiana
34,KAPC,-122.280687222222,38.2131891666667,US,California
35,KFOK,-72.6318119444444,40.8436186111111,US,New York
36,75PA,-80.4589577777778,41.8731111111111,US,Pennsylvania
38,LS76,-90.1700794444445,30.4626925,US,Louisiana
39,KARB,-83.7457088333333,42.2229275555556,US,Michigan
40,GMMN,-7.5899701118,33.3675003052,MA,
41,KACK,-70.0599114166667,41.2529750555556,US,Massachusetts
42,II86,,,,
44,MI23,-83.8666666666667,43.3469444444444,US,Michigan
45,KFME,-76.7594144444444,39.0853866666667,US,Maryland
46,91IN,-85.9747222222222,39.2080555555556,US,Indiana
49,KSOP,-79.3890336111111,35.2374225,US,North Carolina
50,LSZS,9.8841104507,46.5340995789,CH,Grisons
51,KSVN,-81.1459877777778,32.0100202777778,US,Georgia
52,KMLI,-90.5075277777778,41.4482777777778,US,Illinois
53,MT54,-114.244294722222,48.2438505555556,US,Montana
54,LIMG,8.1274299622,44.0505981445,IT,Liguria
55,SKBO,-74.1469,4.70159,CO,Bogota-D-C-
57,SC40,,,,
58,KATL,-84.427864,33.6366996111111,US,Georgia
59,NJ25,-75.2283472222222,39.7896833333333,US,New Jersey
60,KABQ,-106.608262166667,35.0389315555556,US,New Mexico
61,II43,-86.1922277777778,41.7500480555556,US,Indiana
62,KILG,-75.606635,39.6787097222222,US,Delaware
64,KSTP,-93.0603424444444,44.9346225,US,Minnesota
65,EIKY,-9.5237798691,52.1809005737,IE,Munster
67,CPN8,,,,
68,LFHV,4.634931,45.919983,FR,Auvergne-Rhone-Alpes
69,KSGS,-93.0328611111111,44.8571388888889,US,Minnesota
70,KMQJ,-85.8977355555556,39.8431377777778,US,Indiana
71,KDPA,-88.247995,41.9070530555556,US,Illinois
72,K02C,-88.1794444444444,43.0896388888889,US,Wisconsin
73,KHGR,-77.7265,39.7085,US,Maryland
75,SKMA,-74.2754,4.7278,CO,Cundinamarca
76, 17AR,,,,
77,KABE,-75.4404058333333,40.6523627777778,US,Pennsylvania
78,KNZY,-117.21311,32.6981961111111,US,California
80,LFHH,4.8294401169,45.4641990662,FR,Auvergne-Rhone-Alpes
81,EGNT,-1.6916699409,55.0374984741,GB,England
82,KLNN,-81.38975,41.6840277777778,US,Ohio
83,KFMY,-81.8632469444444,26.586615,US,Florida
84,KPBG,-73.4681388888889,44.6509444444444,US,New York
85,59NC,-79.5553019444444,36.0973575,US,North Carolina
86,NY85,,,,
87,KGYH,-82.3764166666667,34.7583055555556,US,South Carolina
88,KBDR,-73.1261758333333,41.1634808333333,US,Connecticut
89,9OH4,,,,
90,KIMM,-81.4004781666667,26.4337121666667,US,Florida
91,5CT7,-72.2961944444444,41.3023333333333,US,Connecticut
92,KHVN,-72.8877291666667,41.2637247222222,US,Connecticut
93,CPF3,,,,
94,KPIA,-89.69325,40.6641944444444,US,Illinois
96,KHUF,-87.30699,39.4506319444444,US,Indiana
98,KCGS,-76.9223055555556,38.9805833333333,US,Maryland
99,KIND,-86.2946388888889,39.7173055555556,US,Indiana
101,08FA,-81.4836886111111,26.5797947222222,US,Florida
103,TA07,-94.9668708333333,30.0071622222222,US,Texas
104,K55J,,,,
105,UT13,,,,
106,TX32,-97.2433333333333,33.3763888888889,US,Texas
108,LHKE,19.7492008209,46.9174995422,HU,Bacs-Kiskun
111,KTPF,-82.4493888888889,27.9154444444444,US,Florida
113,VOBL,77.7062988281,13.1978998184,IN,Karnataka
114,90NY,-77.2427777777778,42.9195083333333,US,New York
115,OTBD,51.5651016235,25.261100769,QA,Baladiyat-ad-Dawḩah
116,KOSU,-83.0732127777778,40.0795155555556,US,Ohio
117,EINN,-8.9248199463,52.7019996643,IE,Munster
118,2MD3,-77.3453333333333,39.229,US,Maryland
119,LFLL,5.0908298492,45.726398468,FR,Auvergne-Rhone-Alpes
120,KCVG,-84.6678208333333,39.0488375,US,Kentucky
121,KOJC,-94.7375838888889,38.8475977777778,US,Kansas
122,3TX2,-97.3489077777778,33.0806775,US,Texas
123,LGMK,25.3481006622,37.4351005554,GR,South Aegean
124,KJAU,-84.1629652777778,36.3340888888889,US,Tennessee
126,KSEA,-122.311777777778,47.4498888888889,US,Washington
127,VOMM,80.1692962646,12.9900054932,IN,Tamil-Nadu
128,CFL4,,,,
130,PN18,-80.2436730555556,42.0272786111111,US,Pennsylvania
131,LFBP,-0.41861099,43.3800010681,FR,Nouvelle-Aquitaine
132,MI72,,,,
133,FL90,-82.2200947222222,26.6034086111111,US,Florida
134,FD83,-81.3839594444445,28.2586233333333,US,Florida
135,KDEN,-104.673166666667,39.8616666666667,US,Colorado
136,LEPA,2.7388100624,39.551700592,ES,Balearic-Islands
137,OI62,-81.3170525,41.4764411111111,US,Ohio
138,EDDM,11.7861003876,48.3538017273,DE,Bayern
139,28MA,-72.8181388888889,42.0798055555556,US,Massachusetts
140,SC24,-82.9136111111111,34.6716666666667,US,South Carolina
141,KPVC,-70.2207222222222,42.0722777777778,US,Massachusetts
142,7FA8,-83.8582583333333,30.5256,US,Florida
143,KBKL,-81.6826388888889,41.5178611111111,US,Ohio
145,KSPG,-82.6269738888889,27.7651138888889,US,Florida
146,KAXH,-95.4769166666667,29.5061388888889,US,Texas
147,EGCC,-2.2749500275,53.3536987305,GB,England
149,KDKK,-79.2711111111111,42.4939444444444,US,New York
150,KBMG,-86.6166804722222,39.1460208333333,US,Indiana
152,7PS7,,,,
153,49OH,-83.2363986111111,39.9354513888889,US,Ohio
154,SEAS,-78.2833328247,-0.0833332986,EC,Pichincha
156,SNEJ,-46.0374984741,-22.8597221375,BR,Minas Gerais
157,KAGS,-81.9645,33.3699444444444,US,Georgia
159,FD25,-80.4988444444444,27.5624694444444,US,Florida
160,OJAI,35.9931983948,31.7226009369,JO,Amman
161,KREI,-117.146388888889,34.08525,US,California
162,KLSE,-91.2566336111111,43.8792656666667,US,Wisconsin
163,07KY,-85.6932925,38.0806225,US,Kentucky
164,KSFZ,-71.4914166666667,41.92075,US,Rhode Island
165,KLZU,-83.9623638888889,33.9780919444444,US,Georgia
166,KOGS,-75.46325,44.68225,US,New York
167,VT48,,,,
168,KTYS,-83.9940672222222,35.8110911111111,US,Tennessee
169,KDWH,-95.5527884166667,30.0617791111111,US,Texas
170,PN64,-77.9393611111111,40.5023888888889,US,Pennsylvania
171,88NY,-78.3583558333333,43.1578363888889,US,New York
172,04FA,-80.5150572222222,25.5587191666667,US,Florida
173,MA86,-73.0598222222222,42.5056405555556,US,Massachusetts
174,ME66,,,,
175, CYUL,,,,
176,KAFW,-97.3194405555555,32.9903858333333,US,Texas
177,FL95,-80.45283,27.7086411111111,US,Florida
178,KMDW,-87.7524166666667,41.7859722222222,US,Illinois
180,KRDU,-78.7874722222222,35.8776388888889,US,North Carolina
181,LGKN,23.9510993958,38.1377983093,GR,Attica
182,PA05,,,,
183,TVSV,-61.210899353,13.1443004608,VC,Saint-George
185,KSRQ,-82.5543888888889,27.3954444444444,US,Florida
186,54MI,-84.0830555555555,42.8102777777778,US,Michigan
187,KCLT,-80.9490555555556,35.21375,US,North Carolina
188,RJAA,140.3860015869,35.7647018433,JP,Chiba
189,3NY5,,,,
190, KOSU,,,,
191,6NJ9,-75.3746352777778,39.7917797222222,US,New Jersey
192,EGKR,-0.1386110038,51.2136001587,GB,England
193,MMMX,-99.0720977783,19.4363002777,MX,Mexico City
194,KPWM,-70.3086163611111,43.6456435,US,Maine
195,WS17,-88.5784463888889,43.9894280555556,US,Wisconsin
197,3TS7,,,,
199,UKKM,30.1919002533,50.6035003662,UA,Kyiv
200,5CT5,-73.2162222222222,41.6323055555556,US,Connecticut
201,KFRG,-73.4134205555556,40.7292744444444,US,New York
203,KBED,-71.289,42.4699444444444,US,Massachusetts
204,KFSD,-96.741925,43.5820180555556,US,South Dakota
205,VG00,,,,
206,LPPR,-8.6813898087,41.2481002808,PT,Porto
208,VT45,-72.9792936111111,44.5172727777778,US,Vermont
209,40FL,-81.8709416666667,26.9525805555556,US,Florida
211,KHSV,-86.7750541666667,34.6371969444444,US,Alabama
214,KSAT,-98.4690569444444,29.5339583333333,US,Texas
215,7MI8,-83.4761111111111,43.3391666666667,US,Michigan
216,EKCH,12.6560001373,55.6179008484,DK,Capital-Region
217,SAEZ,-58.5358,-34.8222,AR,Buenos-Aires
218,CNQ4,,,,
219,LL78,-89.1509413888889,42.3116852777778,US,Illinois
220,KSGJ,-81.3397291666667,29.9592502777778,US,Florida
221,KORH,-71.8756111111111,42.2671388888889,US,Massachusetts
222,KB19,-70.4723888888889,43.4641111111111,US,Maine
223,KAKH,-81.1498758333333,35.2026230555556,US,North Carolina
224,MMJC,-99.2888031006,19.5748004913,MX,Mexico
225,LPCS,-9.3552303314,38.7249984741,PT,Lisbon
226,KSFO,-122.375416666667,37.6188055555556,US,California
227,LFRE,-2.3463900089,47.2893981934,FR,Pays-de-la-Loire
228,KIWA,-111.655459166667,33.3078238888889,US,Arizona
229,2NC1,-80.8016416666667,34.9974388888889,US,North Carolina
231,2KY4,-85.8136111111111,37.655,US,Kentucky
232,MDJB,-69.9856033325,18.5725002289,DO,Santo-Domingo
233,KX26,-80.4955833333333,27.81325,US,Florida
234,LLBG,34.8866996765,32.0113983154,IL,Central District
236,MPHO,-79.5996017456,8.9147901535,PA,Panama
237,KOKV,-78.1444444444444,39.1435277777778,US,Virginia
238,KAVL,-82.5420475,35.4361130555556,US,North Carolina
239,VT25,-73.1662369444444,44.4167172222222,US,Vermont
240,KEYQ,,,,
242,EGAA,-6.2158298492,54.6575012207,GB,Northern Ireland
243,KLGA,-73.8726111111111,40.77725,US,New York
244,PA07,,,,
247,KSUS,-90.6520555555556,38.6621111111111,US,Missouri
248,MI27,-83.854115,42.6125319444444,US,Michigan
249,IG07,-85.0355555555555,39.0569444444444,US,Indiana
250,FA54,-82.2526027777778,26.8537416666667,US,Florida
252,FA24,-80.6122222222222,27.0933333333333,US,Florida
253,KCOF,-80.6099780555555,28.2350066666667,US,Florida
254,MPTO,-79.3834991455,9.0713596344,PA,Panama
257,VT52,-73.1876313888889,44.6433797222222,US,Vermont
259,KUMP,-86.0450677222222,39.9353984722222,US,Indiana
260,KLRD,-99.4615833333333,27.5441944444444,US,Texas
261,SC08,,,,
262,LPPD,-25.6979007721,37.7411994934,PT,Azores
264,JY43,-74.3385555555555,41.0832222222222,US,New Jersey
265,VG22,-78.8935583333333,37.8788194444444,US,Virginia
266,OTHH,51.6137665,25.2605946,QA,Baladiyat-ad-Dawḩah
267,KATW,-88.5190722222222,44.2580930555556,US,Wisconsin
268,EFHK,24.963300705,60.317199707,FI,Uusimaa
269,MA52,-71.4701333333333,42.4380583333333,US,Massachusetts
271,CWB2,,,,
272,KDVT,-112.082555555556,33.6883055555556,US,Arizona
273,KIAH,-95.3414425,29.9844352777778,US,Texas
274,MMHO,-111.047996521,29.0958995819,MX,Sonora
275,KMIA,-80.2901158333333,25.7953611111111,US,Florida
276,KPHX,-112.011583333333,33.4342777777778,US,Arizona
278,MA36,-70.8529666666667,42.6664825,US,Massachusetts
279,OMAA,54.6511001587,24.4330005646,AE,Abu Dhabi
280,KAPF,-81.7756391944444,26.1524408055556,US,Florida
282,KRMY,-84.9554443055556,42.2511931666667,US,Michigan
283,4IL3,-89.2284391666667,42.1428019444444,US,Illinois
284,KN71,-76.5743552777778,40.0922066666667,US,Pennsylvania
285,LIPY,13.3622999191,43.6162986755,IT,The Marches
286,MDBG,-68.7378005981,18.6315994263,DO,La Altagracia
289,KMKE,-87.8970644444445,42.9469319444444,US,Wisconsin
290,EDDN,11.0669002533,49.4986991882,DE,Bayern
291,KHYA,-70.2803591666667,41.6693372222222,US,Massachusetts
293,LD57,15.1632003784,44.2099990845,HR,Zadarska
295,CO14,-105.666111111111,37.4219444444444,US,Colorado
296,SDVH,-46.6347236633,-23.0041675568,BR,São Paulo
298,OH07,-81.2389930555556,40.9439469444444,US,Ohio
299,KGTB,-75.7198944444444,44.0556111111111,US,New York
300,KCHA,-85.2035555555556,35.0351944444444,US,Tennessee
301,MDMA,-68.799099,18.501933,DO,La Altagracia
302,32PN,-80.275895,40.7339547222222,US,Pennsylvania
304,KLAX,-118.408048611111,33.9424963888889,US,California
305,9GA1,-81.3369444444444,32.4488888888889,US,Georgia
306,DE49,,,,
308,DAAX,,,,
310,LFHC,5.1872200966,45.8697013855,FR,Auvergne-Rhone-Alpes
311,KSNA,-117.868233055556,33.6756619444444,US,California
312,K63B,-70.6724722222222,43.7630277777778,US,Maine
313,KLCI,-71.4178416666667,43.5730416666667,US,New Hampshire
314,14MI,,,,
315,5MI8,,,,
317,CA84,,,,
318,KUGN,-87.8679161111111,42.4221486111111,US,Illinois
321,KSJC,-121.928620555556,37.3629947222222,US,California
323,KMVY,-70.6138744444444,41.3934175,US,Massachusetts
325,KDMW,-77.0076666666667,39.6082777777778,US,Maryland
326,KFCI,-77.5248333333333,37.4064444444444,US,Virginia
328,KFGX,-83.7433766666667,38.5418172222222,US,Kentucky
330,KBOI,-116.222861111111,43.5643611111111,US,Idaho
331,MMSM,-99.0164031982,19.7553005219,MX,Mexico
333,5TX6,,,,
334,KSCH,-73.9295644444445,42.8527183333333,US,New York
335,GA20,-81.4627777777778,30.8111111111111,US,Georgia
336,1VA5,,,,
338,EGNX,-1.3280600309,52.8311004639,GB,England
340,KORD,-87.9081497222222,41.9769402777778,US,Illinois
341,ESSA,17.9186000824,59.6519012451,SE,Stockholm
342,MPMG,-79.5556030273,8.9733400345,PA,Panama
343, CMN3,,,,
344,CRG3,,,,
345,LKPR,14.2600002289,50.1007995605,CZ,Praha
346,RJAK,140.1929931641,36.0346984863,JP,Ibaraki
347,MN92,-92.3001911111111,46.7499422222222,US,Minnesota
350,KBNA,-86.6781805555556,36.124475,US,Tennessee
351,42OH,-81.0039813888889,41.15589,US,Ohio
352,KPIE,-82.68651,27.9086336111111,US,Florida
353,82OH,,,,
354,KNRS,-117.1135255,32.5661596111111,US,California
355,67KY,,,,
356,PN66,-79.3636488888889,40.4256233333333,US,Pennsylvania
357,KT51,-95.6672230555556,30.0427752777778,US,Texas
358,78MI,-83.3035413888889,42.0405994444444,US,Michigan
359,KPWK,-87.9015408333333,42.1142794444444,US,Illinois
360,TS53,,,,
362,SPJC,-77.1143035889,-12.021900177,PE,Callao
363,KMAL,-74.3289444444444,44.8536666666667,US,New York
364,KBDL,-72.6843158333333,41.9390322222222,US,Connecticut
365,KGSP,-82.2188594444444,34.8956711111111,US,South Carolina
366,KU77,,,,
367,KOXC,-73.1351825,41.4782805555556,US,Connecticut
368,EGMC,0.695555985,51.5713996887,GB,England
369,LFLM,4.7957701683,46.2951011658,FR,Bourgogne-Franche-Comte
370,KISP,-73.1006650555556,40.7961356944444,US,New York
371,1AZ2,,,,
372,KWST,-71.8034168333333,41.3496329722222,US,Rhode Island
373,KMSS,-74.8451197222222,44.9362411111111,US,New York
376,8KY6,-84.5682777777778,38.9355277777778,US,Kentucky
377,KFCM,-93.4585833333333,44.8275,US,Minnesota
378, CSJ4,,,,
381,SBGR,-46.4730567932,-23.4355564117,BR,São Paulo
382,KCXY,-76.8513611111111,40.2171388888889,US,Pennsylvania
383,KPHN,-82.5288497222222,42.9109586111111,US,Michigan
384,CCE6,,,,
385,EVRA,23.9710998535,56.9235992432,LV,Marupe
386,KCEF,-72.5347866666667,42.1940155555556,US,Massachusetts
387,KALB,-73.80198,42.7491161111111,US,New York
388,KLOU,-85.6637490555556,38.2279840277778,US,Kentucky
390,K7B2,-72.6112402777778,42.3280097222222,US,Massachusetts
391,EGPH,-3.3724999428,55.9500007629,GB,Scotland
392,KLEB,-72.3041944444444,43.6261111111111,US,New Hampshire
393,KPIT,-80.2326944444444,40.4914166666667,US,Pennsylvania
395,KMDT,-76.7626191666667,40.1931916666667,US,Pennsylvania
396,4NK1,,,,
397,KTTA,-79.1013377777778,35.5824394444444,US,North Carolina
398,II19,,,,
399,KMKC,-94.5928333333333,39.1229444444444,US,Missouri
400,FD74,-80.9022825,28.0658511111111,US,Florida
401,9II2,,,,
402,BIRK,-21.9405994415,64.1299972534,IS,Capital Region
403,KFPR,-80.3726388888889,27.4974722222222,US,Florida
404,KHOU,-95.2772315833333,29.6457998333333,US,Texas
405,FL84,-81.5703730555555,30.6010702777778,US,Florida
406,KEDC,-97.5663935,30.3974931388889,US,Texas
407,MI39,-85.8391083333333,42.8522361111111,US,Michigan
409,MDBC,-68.9159011841,18.4797000885,DO,La Romana
411,EETN,24.8327999115,59.4132995605,EE,Harjumaa
412,EGHI,-1.3567999601,50.9502983093,GB,England
413,EDGS,8.0829696655,50.707698822,DE,Nordrhein-Westfalen
415,82LA,,,,
416,PANC,-149.9981375,61.1740847222222,US,Alaska
417,KX10,-80.6602444444444,26.6981888888889,US,Florida
418,VT39,,,,
419,KOCF,-82.2241146388889,29.1718767777778,US,Florida
420,NY73,,,,
421,CRM4,,,,
423,KPSF,-73.2908398055555,42.4276201111111,US,Massachusetts
424,36AL,-85.5342777777778,31.4928888888889,US,Alabama
425,ENGM,11.100399971,60.193901062,NO,Akershus
426,KPDK,-84.3020305555555,33.8760019444444,US,Georgia
427,53II,-84.8407958333333,41.0731044444444,US,Indiana
429,FD38,-80.2950666666667,26.6467083333333,US,Florida
431,SNGA,-40.4919013977,-20.6464996338,BR,Espírito Santo
432,KOQU,-71.4121388888889,41.5971388888889,US,Rhode Island
433,KMPO,-75.3800555555555,41.1376944444444,US,Pennsylvania
434,OI69,-81.1670441666667,41.7783797222222,US,Ohio
435,TNCA,-70.0151977539,12.5013999939,AW,
438,MDAN,-70.2216033936,19.1315994263,DO,Sanchez-Ramirez
439,GA95,-84.5021502777778,33.5262238888889,US,Georgia
440,EGNS,-4.6238899231,54.0833015442,IM,Castletown
441,LBSF,23.4114360809,42.6966934204,BG,Sofia-Capital
442,KUCP,-80.4133627777778,41.0253330555556,US,Pennsylvania
443,LPBJ,-7.9324002266,38.0788993835,PT,Beja
444,NK01,-75.604915,43.9995122222222,US,New York
445,VT01,-72.9373419444445,44.2825558333333,US,Vermont
446,KPTK,-83.4205056388889,42.6656361944444,US,Michigan
447,ID27,-116.859361111111,47.7554591666667,US,Idaho
448,KDTW,-83.3533888888889,42.2124444444445,US,Michigan
449,KMIV,-75.0722222222222,39.3678055555556,US,New Jersey
450,2WN6,-90.4193011111111,44.5296841666667,US,Wisconsin
451,2NY9,-76.7224508333333,42.3700733333333,US,New York
452,IS59,-88.9241666666667,42.1338888888889,US,Illinois
453,KCOS,-104.700776388889,38.8058166666667,US,Colorado
455,8WI6,-87.6528708333333,44.6097180555556,US,Wisconsin
456,46OI,,,,
457,KISM,-81.4370813888889,28.2898069444444,US,Florida
458,KRZT,-83.0230555555556,39.4404166666667,US,Ohio
459,KFFT,-84.9067497777778,38.1817316944444,US,Kentucky
460,KNY2,,,,
462,EKBI,9.1517801285,55.7402992249,DK,South Denmark
463,4NY0,-73.5462477777778,44.6689319444444,US,New York
465,KSMQ,-74.6700316111111,40.6259806388889,US,New Jersey
466, KMDW,,,,
467,LIRF,12.2508001328,41.8045005798,IT,Latium
469,7TS4,-96.0459722222222,32.0561666666667,US,Texas
470,15ME,-70.2291666666667,43.8152777777778,US,Maine
471,KMQY,-86.5200897222222,36.0089702777778,US,Tennessee
472,KART,-76.0194166666667,43.9918333333333,US,New York
473,1FD4,-81.6073030555555,26.4453566666667,US,Florida
474,IN60,-86.1602675,40.0178152777778,US,Indiana
476,2NK3,-72.2665638888889,41.1516861111111,US,New York
477,KALO,-92.4010233333333,42.5584491666667,US,Iowa
478,KPAE,-122.282093888889,47.9073180555556,US,Washington
479,EDDP,12.2416000366,51.4323997498,DE,Saxony
481,NK08,-74.1298888888889,41.8319138888889,US,New York
483,OERK,46.6987991333,24.9575996399,SA,
484,IN58,-86.2629236111111,39.5013347222222,US,Indiana
485,KPVD,-71.4277222222222,41.7223333333333,US,Rhode Island
486,KOAK,-122.221138888889,37.72125,US,California
490,25SC,-82.3373888888889,34.9606388888889,US,South Carolina
491,KNKX,-117.143188388889,32.8685289722222,US,California
492,92VA,-76.5644444444444,37.3447222222222,US,Virginia
493,LIPZ,12.3519001007,45.5052986145,IT,Veneto
494,KYIP,-83.5314616666667,42.2402738888889,US,Michigan
495,57ME,-70.8544444444444,43.9177777777778,US,Maine
496,2GA9,-83.9997222222222,33.8091666666667,US,Georgia
497,KBHM,-86.7523055555556,33.5638888888889,US,Alabama
498,KFAY,-78.8802741666667,34.9912111111111,US,North Carolina
499,WV65,-80.0113888888889,39.4492522222222,US,West Virginia
500,LIPE,11.2887001038,44.5354003906,IT,Emilia Romagna
502,KJFK,-73.7786925,40.6399277777778,US,New York
503,LCLK,33.6249008179,34.8750991821,CY,Larnaka
504,RI20,,,,
506,KFTW,-97.36245,32.8197702777778,US,Texas
507,KSBM,-87.8517222222222,43.7697777777778,US,Wisconsin
509,LFFI,-1.1775000095,47.4081001282,FR,Pays-de-la-Loire
510,KTPA,-82.53325,27.9754722222222,US,Florida
511,TS35,-94.9780555555556,30.0583333333333,US,Texas
512,EGVO,-0.9428250194,51.2341003418,GB,England
513,TJSJ,-66.0021333333333,18.4393991666667,US,Puerto Rico
514,KTIX,-80.7992222222222,28.5148055555556,US,Florida
515,58IN,-84.8638516666667,41.2583833333333,US,Indiana
516,KBGM,-75.9796111111111,42.2084444444444,US,New York
517,67OH,,,,
518,LL39,-88.4777777777778,41.2575,US,Illinois
520, 14MI,,,,
521,KADS,-96.8364444444444,32.9685555555556,US,Texas
522,KFZY,-76.3880555555556,43.3507777777778,US,New York
523,EBMB,4.4844444444,50.901389,BE,Flanders
524,KNGU,-76.2892780555556,36.9374686111111,US,Virginia
525,KPYM,-70.727685,41.9086175,US,Massachusetts
526,VT22,-73.2670713888889,44.4014388888889,US,Vermont
527,KBTV,-73.1532761111111,44.471955,US,Vermont
528,KTUS,-110.941013888889,32.1160691666667,US,Arizona
530,KBWI,-76.6689911111111,39.1757283333333,US,Maryland
531,0MI4,-87.3865283333333,46.2702227777778,US,Michigan
532,OA16,-84.7816666666667,39.1561111111111,US,Ohio
533,LGAV,23.9444999695,37.9364013672,GR,Attica
535,1NK6,-73.749585,44.4236577777778,US,New York
536,KSWF,-74.1048333333333,41.5041111111111,US,New York
537,K2W5,-77.0724583333333,38.5970486111111,US,Maryland
538,KEFK,-72.2286352777778,44.8881755555556,US,Vermont
539,KPSM,-70.8232777777778,43.0779444444444,US,New Hampshire
540,9WS2,,,,
541,KOSH,-88.5570430555556,43.9843708333333,US,Wisconsin
542,GA43,-81.4266666666667,32.3213888888889,US,Georgia
543,KDAW,-70.9295495,43.2842348333333,US,New Hampshire
544,KFSO,-73.0974722222222,44.9402777777778,US,Vermont
545,2CN8,-117.151388888889,34.3041666666667,US,California
546,KTNU,-93.0217283333333,41.67443,US,Iowa
547,EGJB,-2.6019699574,49.4350013733,GG,Forest
548,KPTD,-74.9484444444444,44.6766666666667,US,New York
550,FA51,-81.5061883333333,26.7389552777778,US,Florida
551,KSLC,-111.977773333333,40.7883933333333,US,Utah
552,4KS1,-95.0330227777778,38.6852875,US,Kansas
553,K9X1,,,,
554,5TX4,,,,
555,GMME,-6.7515201569,34.0514984131,MA,
556,KELM,-76.8917456666667,42.1598561388889,US,New York
558,KTHV,-76.8730277777778,39.917,US,Pennsylvania
559,LFVP,-56.1730995178,46.7629013062,PM,
561,6AR1,-94.1966,36.2779083333333,US,Arkansas
562,KFTG,,,,
563,MN77,-96.7156336111111,46.9235736111111,US,Minnesota
565,LDDU,18.2681999207,42.5614013672,HR,Dubrovacko-Neretvanska
566,KAUW,-89.62700175,44.9262845277778,US,Wisconsin
568,MA88,-72.9309311111111,42.3900869444444,US,Massachusetts
569,06FA,-80.3284140277778,26.9081530555556,US,Florida
570,LFRZ,-2.1491799355,47.3121986389,FR,Pays-de-la-Loire
571,KGYY,-87.4145277777778,41.61725,US,Indiana
572,41KS,-94.7973333333333,38.7355,US,Kansas
574,TXKF,-64.6787033081,32.3639984131,BM,Saint-Georgeʼs
575,0VA9,-76.4538366666667,37.4473605555556,US,Virginia
576,EDDW,8.7866697311,53.0475006104,DE,Bremen
577,24CT,-71.9668833333333,41.5668861111111,US,Connecticut
581,KJYO,-77.5575,39.0779722222222,US,Virginia
582,6FL3,-81.5670222222222,26.9372811111111,US,Florida
583,54ME,-70.3202777777778,43.9494444444444,US,Maine
584,KCWA,-89.6667780277778,44.7776236666667,US,Wisconsin
586,ME91,-70.4956083333333,43.6750797222222,US,Maine
587,EGTE,-3.4138898849,50.7344017029,GB,England
589,KU42,-111.992889166667,40.6195466666667,US,Utah
590,KT54,-95.7797583333333,29.5233305555556,US,Texas
591,KAGC,-79.9290466666667,40.3544376388889,US,Pennsylvania
592,LFBO,1.3638199568,43.6291007996,FR,Occitanie
594,25GA,-84.6629888888889,33.6595538888889,US,Georgia
595,KITH,-76.4587222222222,42.4913611111111,US,New York
596,KUAO,-122.770055555556,45.2471388888889,US,Oregon
598,KMMU,-74.4148886111111,40.7993383333333,US,New Jersey
599,OJAM,35.9916000366,31.972700119,JO,Amman
601,KSDL,-111.910527777778,33.6228888888889,US,Arizona
604,KI67,-84.7743055555556,39.2592686111111,US,Ohio
605,KMRB,-77.983,39.4023577777778,US,West Virginia
606,KSFM,-70.708,43.3938055555556,US,Maine
607,KMGJ,-74.2635391666667,41.5118116666667,US,New York
608,KBLI,-122.537527777778,48.7926944444444,US,Washington
609,95FD,-81.5388888888889,26.7683333333333,US,Florida
610,EICK,-8.491109848,51.8413009644,IE,Munster
612,KOKC,-97.6007617222222,35.3930740277778,US,Oklahoma
613,KLAS,-115.152234722222,36.0800438888889,US,Nevada
614,KMCF,-82.5212194444444,27.8493444444444,US,Florida
615,KOWD,-71.1729444444445,42.1905277777778,US,Massachusetts
616,KTNT,-80.897,25.8618055555556,US,Florida
617,K0I8,-84.2833444444444,38.3661638888889,US,Kentucky
618,KJZP,-84.4572222222222,34.4534722222222,US,Georgia
619,PA20,,,,
620,CTH8,,,,
621,98VA,,,,
622,88PA,-80.4131202777778,40.5392333333333,US,Pennsylvania
623,CVL3,,,,
624,KJHW,-79.2580230555556,42.1533938888889,US,New York
627,SC33,,,,
628,KERI,-80.1739444444444,42.0830833333333,US,Pennsylvania
629,NH84,-71.2211555555556,43.2075888888889,US,New Hampshire
630,KSLK,-74.2061813888889,44.3853080555556,US,New York
631,KMSP,-93.2217777777778,44.8819722222222,US,Minnesota
633,KMTN,-76.4137777777778,39.3256666666667,US,Maryland
635,MDPC,-68.3634033203,18.5673999786,DO,La Altagracia
637,KBWG,-86.4196666666667,36.9645277777778,US,Kentucky
638,KAUS,-97.6698761111111,30.1945272222222,US,Texas
639,OBBS,50.5905990601,25.9183998108,BH,
640,OH57,,,,
641,CT13,-71.8161816666667,41.8834313888889,US,Connecticut
642,1MU2,-94.6643825,39.4450183333333,US,Missouri
643,06MO,-94.8044058333333,39.2305575,US,Missouri
644,KACY,-74.5771666666667,39.4575833333333,US,New Jersey
645,KMSY,-90.2590277777778,29.9932777777778,US,Louisiana
646,LEGE,2.7605500221,41.9010009766,ES,Catalonia
647,KIXD,-94.8903055555556,38.8309166666667,US,Kansas
648,RJGG,136.8049926758,34.8583984375,JP,Aichi
649,LFHN,5.8061099052,46.1241989136,FR,Auvergne-Rhone-Alpes
652,KPNE,-75.0105775,40.0819388888889,US,Pennsylvania
653, CYND,,,,
655,KHPN,-73.7075661111111,41.0669530555556,US,New York
656,NC37,-79.8411469444444,36.3401363888889,US,North Carolina
657, CYRQ,,,,
659,21NH,-70.9352777777778,42.9169444444444,US,New Hampshire
660,07VT,-72.9147222222222,44.4472222222222,US,Vermont
662,69TA,-97.5252713888889,27.6550316666667,US,Texas
663,LPFR,-7.9659099579,37.0144004822,PT,Faro
664,EGLM,-0.774443984,51.5008010864,GB,
665,KJST,-78.8346666666667,40.3155555555556,US,Pennsylvania
666,KAVQ,-111.218388888889,32.4095555555556,US,Arizona
667,KPHF,-76.4929722222222,37.1318888888889,US,Virginia
668,EHAM,4.7638897896,52.3086013794,NL,North Holland
669,88VT,-73.3502777777778,44.8783333333333,US,Vermont
670,KCRG,-81.5144444444445,30.3363333333333,US,Florida
671,KLWM,-71.1235333333333,42.7170422222222,US,Massachusetts
672,KBIV,-86.1078333333333,42.7427777777778,US,Michigan
673,RKSI,126.4509963989,37.4691009521,KR,Incheon
674,4FA3,-82.1178697222222,26.6434066666667,US,Florida
675,KSBY,-75.5094780555556,38.3401894444444,US,Maryland
676,KSGF,-93.3886388888889,37.2456666666667,US,Missouri
677,AL16,-86.7236022222222,33.7267680555556,US,Alabama
678,KBTP,-79.9510833333333,40.7765833333333,US,Pennsylvania
679,FL35,-82.4877777777778,28.175,US,Florida
680,LFKL,4.6977801323,45.7117004395,FR,Auvergne-Rhone-Alpes
683,KTUL,-95.8881055555556,36.1983936111111,US,Oklahoma
684,59NY,-78.6900325,43.2306122222222,US,New York
685,LFRS,-1.610730052,47.1531982422,FR,Pays-de-la-Loire
686,EDDS,9.2219600677,48.6898994446,DE,Baden-Württemberg
687,94NY,-76.6913372222222,42.8250686111111,US,New York
689,KMSV,-74.7950277777778,41.7016388888889,US,New York
691,EGKB,0.0324999988,51.3307991028,GB,England
692,MMMA,-97.5252990723,25.7698993683,MX,Tamaulipas
693,KLDJ,-74.2445941666667,40.6174494444444,US,New Jersey
694,KDXR,-73.4821894444444,41.3715344444444,US,Connecticut
695,CT32,-71.8345152777778,41.5353766666667,US,Connecticut
696,VT63,,,,
697,KLNS,-76.2943611111111,40.1223611111111,US,Pennsylvania
698,KF45,-80.2223333333333,26.8459166666667,US,Florida
700,75MN,-93.7141166666667,44.1866333333333,US,Minnesota
701,03ME,-70.6272827777778,44.0842372222222,US,Maine
702,KCYO,-82.9821388888889,39.516,US,Ohio
703,FL86,-82.0984252777778,26.5825755555556,US,Florida
704,4VA8,-77.2958111111111,37.6137555555556,US,Virginia
706,KMZJ,-111.325333333333,32.5098333333333,US,Arizona
709,EGGP,-2.8497200012,53.3335990906,GB,England
710,EIDW,-6.270070076,53.4212989807,IE,Leinster
711,KS50,-122.226655111111,47.3276248611111,US,Washington
712,LSMP,6.9150600433,46.8432006836,CH,Vaud
713,SC72,-82.1464166666667,34.8244722222222,US,South Carolina
714,LSTZ,7.3805599213,46.5525016785,CH,Bern
715,KFLL,-80.1496944444444,26.0716666666667,US,Florida
716,MY98,,,,
718,KAXV,-84.2980833333333,40.4935555555556,US,Ohio
719,KCON,-71.5022777777778,43.2027222222222,US,New Hampshire
721,VT64,,,,
722,KBUR,-118.358666666667,34.2006944444444,US,California
723,KBCT,-80.1076963888889,26.3784855555556,US,Florida
724,OH22,-81.7790222222222,40.7611666666667,US,Ohio
725,EDDB,13.500667,52.362167,DE,Brandenburg
726,SC88,-81.7942686111111,35.1473455555556,US,South Carolina
727,K06C,-88.1012427777778,41.9893408333333,US,Illinois
728,PN40,-79.8975516666667,42.1842236111111,US,Pennsylvania
729,LPPT,-9.1359195709,38.7812995911,PT,Lisbon
730,YMML,144.8430023193,-37.6733016968,AU,Victoria
731,47FD,-81.7706388888889,26.6628488888889,US,Florida
732,MMPC,-98.7825012207,20.0774002075,MX,Hidalgo
733,KDAB,-81.0580422222222,29.1799088888889,US,Florida
734,KHWO,-80.2407222222222,26.0012222222222,US,Florida
735,II85,-85.0491352777778,40.8961586111111,US,Indiana
736,77PA,-79.8997747222222,40.5834005555556,US,Pennsylvania
739,0NK6,,,,
740,KFXE,-80.1707062777778,26.1972793611111,US,Florida
741,LFBD,-0.7155560255,44.8283004761,FR,Nouvelle-Aquitaine
742,KLNA,-80.0850646111111,26.5930555555556,US,Florida
743,PA53,-75.5282402777778,41.6270261111111,US,Pennsylvania
744,YMEN,144.9019927979,-37.728099823,AU,Victoria
745,0TS2,,,,
746,KHFD,-72.6494444444445,41.7367222222222,US,Connecticut
747,LJCE,15.5302000046,45.9000015259,SI,Brezice
749,KPVG,-76.4512803611111,36.7807648055556,US,Virginia
750,KCMI,-88.2765391666667,40.0385608333333,US,Illinois
751,20KY,-84.6711111111111,38.8169444444444,US,Kentucky
752,4TE6,-97.7951638888889,31.8388166666667,US,Texas
753,LIBD,16.7605991364,41.1389007568,IT,Apulia
754,OH91,,,,
755,KLUK,-84.4186111111111,39.1033333333333,US,Ohio
756,KMLB,-80.64525,28.10275,US,Florida
757,KGVL,-83.8302261111111,34.2726263888889,US,Georgia
759,KPSP,-116.506694444444,33.8296666666667,US,California
760,0NK8,,,,
761,EGWU,-0.418166995,51.5530014038,GB,England
763,KRIC,-77.3197386111111,37.5051811111111,US,Virginia
765,LEZG,-1.0415500402,41.6661987305,ES,Aragon
766,KBOS,-71.0063888888889,42.3629444444444,US,Massachusetts
767,KLCK,-82.9278055555556,39.8137777777778,US,Ohio
768,KTEB,-74.0608333333333,40.8501111111111,US,New Jersey
769,IG04,,,,
770,MMCZ,-86.9255981445,20.5223999023,MX,Quintana Roo
771,8MI0,,,,
772,3OH5,,,,
774,NC05,-80.7942380555556,35.40875,US,North Carolina
775,KBLM,-74.1245555555555,40.1867777777778,US,New Jersey
777,CT52,-73.2912277777778,41.3681511111111,US,Connecticut
778,KLKP,-73.9618694444444,44.2644777777778,US,New York
779,BIKF,-22.6056003571,63.9850006104,IS,Southern Peninsula
781,CRM3,,,,
782,KSUA,-80.2212933333333,27.1816991666667,US,Florida
783,K39N,-74.6590063888889,40.3990888888889,US,New Jersey
784,MMHC,-97.4198989868,18.4972000122,MX,Puebla
785,9NC9,-79.8950358333333,36.2101355555556,US,North Carolina
786,LL61,,,,
788,NY24,-78.9700419444444,43.1278333333333,US,New York
789,KLKU,-77.9701266666667,38.0098247222222,US,Virginia
790, KFTY,,,,
791,OK94,-95.8032222222222,36.3545763888889,US,Oklahoma
792,FD57,-80.4164411111111,27.46976,US,Florida
793,EBCI,4.4538202286,50.4592018127,BE,Wallonia
794,71KY,-84.8727280555556,39.0347805555556,US,Kentucky
795,KROC,-77.6718688888889,43.1191436111111,US,New York
796,CAY5,,,,
797, CYYZ,,,,
798,4VA9,-77.9205508333333,38.5690116666667,US,Virginia
799,KJVY,-85.7381447222222,38.3666183333333,US,Indiana
801,KTOL,-83.8078266666667,41.5868166666667,US,Ohio
802,K0G7,-76.7811666666667,42.8835555555556,US,New York
804,LSZM,7.5299100876,47.5895996094,CH,Grand Est
805,KAIO,-95.04875,41.4038333333333,US,Iowa
806,6IN6,-86.4766666666667,39.5488888888889,US,Indiana
807,KX14,-81.4282777777778,26.7405833333333,US,Florida
809,LJLJ,14.4575996399,46.2237014771,SI,Cerklje-na-Gorenjskem
810,KBMI,-88.9159166666667,40.4771111111111,US,Illinois
811,8NK6,-75.1683333333333,42.7130555555556,US,New York
812,8TX7,,,,
813,KWWD,-74.9085088888889,39.0083694444444,US,New Jersey
817,48WI,-89.7301458333333,45.7938433333333,US,Wisconsin
818,3TE9,,,,
819,LFHW,4.7147197723,46.1427993774,FR,Auvergne-Rhone-Alpes
820,KJWN,-86.8864953333333,36.1830218333333,US,Tennessee
821,57FA,-81.1192316666667,28.2086244444444,US,Florida
823,LFNR,5.1783299446,43.5377998352,FR,Provence-Alpes-Cote-d'Azur
824,TBPB,-59.4925003052,13.0746002197,BB,Christ-Church
825,LEBL,2.0784599781,41.2971000671,ES,Catalonia
826,GA53,-84.3718705555555,33.8151047222222,US,Georgia
827,CCR9,,,,
828,EGPF,-4.4330601692,55.8718986511,GB,Scotland
829,KVRB,-80.4179444444444,27.6555555555556,US,Florida
831,42VT,-73.1501611111111,44.3668861111111,US,Vermont
832,KDET,-83.0101738888889,42.4093275,US,Michigan
835,EPGD,18.4661998749,54.3776016235,PL,Pomerania
836,LIRP,10.3927001953,43.6838989258,IT,Tuscany
837,KFDK,-77.3747322222222,39.4170211111111,US,Maryland
838,78ME,-70.2591666666667,43.7530555555556,US,Maine
839,LMML,14.4775,35.857498,MT,Luqa
840,KGHG,-70.6730198611111,42.0974988333333,US,Massachusetts
841,KJEF,-92.1561447222222,38.5911736111111,US,Missouri
842,MA66,,,,
844,24ME,-70.4427777777778,43.8222222222222,US,Maine
845,1PN1,-80.4206236111111,41.3342219444444,US,Pennsylvania
846,OA19,-81.3121361111111,40.8901,US,Ohio
847,4FL3,-80.6661675,27.7416958333333,US,Florida
849,HECA,31.4055995941,30.1219005585,EG,Cairo
850,89IN,-86.3897158333333,39.5069919444444,US,Indiana
851,8OI3,-80.6689663888889,41.3733888888889,US,Ohio
852,KTTN,-74.8134722222222,40.2766944444444,US,New Jersey
853,K0B8,-72.0316388888889,41.2521388888889,US,New York
854,40ME,-70.9559777777778,44.1058916666667,US,Maine
856,71ME,-70.6011111111111,43.9669444444444,US,Maine
858,02AR,-93.6965,34.1169444444444,US,Arkansas
859,KVNY,-118.489972222222,34.2098055555556,US,California
860,EGCN,-1.0106563568,53.4805378105,GB,England
861,LFPG,2.5499999523,49.0127983093,FR,Ile-de-France
862,KSDM,-116.980166666667,32.5722777777778,US,California
863,EGKK,-0.1902779937,51.1481018066,GB,England
865,KFAF,-76.6089356666667,37.1326090555556,US,Virginia
866,NTAA,-149.606994629,-17.5536994934,PF,Iles-du-Vent
867,5GA4,-84.4485397222222,34.1059313888889,US,Georgia
868,7NK7,-75.5319444444444,42.7052777777778,US,New York
869,4KY7,-84.6847222222222,38.8233333333333,US,Kentucky
870,KCRQ,-117.280083333333,33.12825,US,California
871,LEAL,-0.5581560135,38.2821998596,ES,Valencia
872,71MI,-83.5172222222222,42.0844444444444,US,Michigan
873,KAZO,-85.5515555555556,42.2343888888889,US,Michigan
874,IA56,-93.3793758333333,41.7805433333333,US,Iowa
876,89NY,-75.8996733333333,44.3167172222222,US,New York
877,EPWA,20.9671001434,52.1656990051,PL,Mazovia
878,OMDB,55.3643989563,25.2527999878,AE,Dubai
879,EGTK,-1.3200000525,51.8368988037,GB,England
881,GOBD,-17.066944,14.671111,SN,M'bour
882,EDFH,7.2638897896,49.9486999512,DE,Rheinland-Pfalz
883,KEWR,-74.1686867777778,40.6924798333333,US,New Jersey
885,CRM5,,,,
886,MMPB,-98.3713989258,19.1581001282,MX,Puebla
887,EDDG,7.6848301888,52.134601593,DE,Nordrhein-Westfalen
888,1TE2,,,,
889,K20A,-86.3803888888889,33.9712777777778,US,Alabama
892,KDCA,-77.0377213888889,38.8514402777778,US,Dist. Of Columbia
893,53IN,-86.2149947222222,40.5214269444444,US,Indiana
894, KFLL,,,,
895,2NH5,-72.4016666666667,42.9902777777778,US,New Hampshire
898,CME2,,,,
899,KBUF,-78.7305697222222,42.9404272222222,US,New York
900,MDBE,-69.0553970337,18.5867996216,DO,El-Seibo
901,4GE2,,,,
904,KFAR,-96.81575,46.9206388888889,US,North Dakota
905,LIRA,12.5949001312,41.7994003296,IT,Latium
906,KHWV,-72.8669072222222,40.8219541666667,US,New York
907,4NC6,-82.4820833333333,35.4413055555556,US,North Carolina
908,KEEN,-72.2707777777778,42.8983888888889,US,New Hampshire
909,EGSC,0.174999997,52.2050018311,GB,England
910,VA16,-77.4844338888889,38.8792788888889,US,Virginia
911,EDXW,8.340470314,54.9132003784,DE,Schleswig-Holstein
912,NY60,-73.5593041666667,44.7625405555556,US,New York
914,LFPB,2.4413900375,48.9693984985,FR,Ile-de-France
915,KSDF,-85.7364936111111,38.174085,US,Kentucky
916,FA18,-81.0202777777778,26.4441666666667,US,Florida
917,KUZA,-81.0571666666667,34.9878333333333,US,South Carolina
919,02XS,-97.6627791666667,30.1477130555556,US,Texas
920,LFMN,7.2158699036,43.6584014893,FR,Provence-Alpes-Cote-d'Azur
921,21XS,-95.2752136111111,29.5196786111111,US,Texas
922,KN23,-75.4159722222222,42.3025833333333,US,New York
923,YSSY,151.1770019531,-33.9460983276,AU,New South Wales
924,KIAD,-77.4599444444444,38.9474444444444,US,Dist. Of Columbia
925,CBN7,,,,
926,KFTY,-84.521366,33.7791263888889,US,Georgia
927,KSEE,-116.972444444444,32.8262222222222,US,California
928,VA12,-79.7969805555555,36.6468041666667,US,Virginia
929,KINT,-80.2219877222222,36.1337138055556,US,North Carolina
930,DAAG,3.2154099941,36.6910018921,DZ,Algiers
931,5NY1,-74.9062702777778,42.3998030555556,US,New York
932,71NC,-79.4497222222222,36.2633333333333,US,North Carolina
933,KFWA,-85.1951666666667,40.9784722222222,US,Indiana
934,KBTL,-85.2500889444444,42.3064728055556,US,Michigan
936,LFPE,2.8352799416,48.9277992249,FR,Ile-de-France
937,SBBR,-47.9208335876,-15.8691673279,BR,Federal-District
938,LFMY,5.1092500687,43.6063995361,FR,Provence-Alpes-Cote-d'Azur
939,KPHL,-75.2406630555556,39.8720838888889,US,Pennsylvania
940,TJIG,-66.0984722222222,18.4567777777778,US,Puerto Rico
941,KAKR,-81.4676847222222,41.0374236111111,US,Ohio
942,KRZN,-92.3736930555555,45.8234638888889,US,Wisconsin
943,KLBE,-79.4103255555556,40.2731005,US,Pennsylvania
944,ME26,-69.5338194444444,46.0195861111111,US,Maine
945,MMTJ,-116.9700012207,32.5410995483,MX,Baja California Sur
946,7NK1,,,,
947,7MO5,,,,
948,CMB7,,,,
950,KSGR,-95.6565341666667,29.6222486111111,US,Texas
951,CT36,-72.1973011111111,41.5645425,US,Connecticut
952,KCGF,-81.4872222222222,41.5645833333333,US,Ohio
953,SBMT,-46.6377983093,-23.5090999603,BR,São Paulo
954,KTMB,-80.4332246111111,25.6475637222222,US,Florida
955,KASH,-71.5140944444444,42.7824138888889,US,New Hampshire
957,EDDK,7.1427397728,50.8658981323,DE,Nordrhein-Westfalen
958,KVSF,-72.5172777777778,43.3437222222222,US,Vermont
960,86MI,-83.5674366666667,42.1528186111111,US,Michigan
961,LSZH,8.5491695404,47.4646987915,CH,Zurich
962,KCID,-91.7107986111111,41.8846885833333,US,Iowa
963,ME96,,,,
964,KGAI,-77.166,39.1683333333333,US,Maryland
966,6NY1,-77.0894141666667,42.1128516666667,US,New York
967,VT46,-73.28652,44.8719855555556,US,Vermont
968,LKKB,14.5436000824,50.1213989258,CZ,Praha
969,KMHT,-71.43575,42.9328055555556,US,New Hampshire
970,KVPC,-84.8487066666667,34.1231475,US,Georgia
971,PAED,-149.806525666667,61.2513531944444,US,Alaska
972,KPMP,-80.1112075,26.2474005555556,US,Florida
973,TLPC,-60.992901,14.0202,LC,Castries
974,K4G8,-81.9604418333333,41.3186801944444,US,Ohio
975,25OH,-81.2598280555556,40.9131136111111,US,Ohio
979,MM28,-98.9436035156,19.8740005493,MX,Morelos
980,MA72,,,,
981,KHYI,-97.863,29.89275,US,Texas
982,65LA,-90.0222927777778,29.8660394444444,US,Louisiana
983,FD30,-80.5261658333333,27.4114288888889,US,Florida
984,LOWW,16.5697002411,48.1102981567,AT,Lower-Austria
985,KSDC,-77.1194638888889,43.2345975,US,New York
986,KJAX,-81.6878466666667,30.4940455555556,US,Florida
987,LFPO,2.3594400883,48.7252998352,FR,Ile-de-France
989,KVVS,-79.6574166666667,39.9590555555556,US,Pennsylvania
990, CSR3,,,,
991,KSFB,-81.2349138888889,28.7771780555556,US,Florida
992,LFML,5.2214241028,43.439271922,FR,Provence-Alpes-Cote-d'Azur
993,3NK5,-73.4652777777778,44.6166666666667,US,New York
995,LSGG,6.1089501381,46.2380981445,CH,Geneva
996, KDFW,,,,
997,KBEH,-86.4248811111111,42.1283808333333,US,Michigan
998,42II,,,,
999,K1R8,-87.8193333333333,30.8703333333333,US,Alabama
1000,SBGL,-43.2505569458,-22.8099994659,BR,Rio de Janeiro
1001,KRSW,-81.7551666666667,26.5361666666667,US,Florida
1002,KAPA,-104.849293055556,39.5701186111111,US,Colorado
1003,MA43,-72.9001,42.0723155555556,US,Massachusetts
1004,CT19,-72.5398091666667,41.9681522222222,US,Connecticut
1005,KMQS,-75.8654722222222,39.9789722222222,US,Pennsylvania
1006,1CA6,-116.722520555556,32.7650541666667,US,California
1007,KMRT,-83.3516330555556,40.2244997222222,US,Ohio
1008,VT31,-72.44399,44.1111741666667,US,Vermont
1009,K4J6,,,,
1010,LIMC,8.7281103134,45.6305999756,IT,Lombardy
1011,UUWW,37.2615013123,55.5914993286,RU,Moscow
1012,PN37,,,,
1013,EDDH,9.9882297516,53.6304016113,DE,Hamburg
1014,K5B2,-73.8616388888889,43.0507222222222,US,New York
1016,KK32,,,,
1018,LEZL,-5.8931097984,37.4179992676,ES,Andalusia
1019,KGFL,-73.6103055555556,43.3412222222222,US,New York
1021,KOMA,-95.8940555555556,41.3031666666667,US,Nebraska
1022,GA35,-81.3966666666667,32.1575,US,Georgia
1023,MI29,-83.79272,42.3764247222222,US,Michigan
1025,LFMF,6.7027797699,43.6088981628,FR,Provence-Alpes-Cote-d'Azur
1026,KSCK,-121.23874,37.8944102777778,US,California
1028,EGLL,-0.4619410038,51.4706001282,GB,England
1029,MDSD,-69.6688995361,18.4297008514,DO,Nacional
1030,KBFI,-122.301944444444,47.5299722222222,US,Washington
1031,KOIC,-75.5241111111111,42.5665555555556,US,New York
1032,LPAR,-9.0300998688,38.8833007813,PT,Lisbon
1033,KN66,-75.0644722222222,42.5247777777778,US,New York
1034,9MI2,-83.307625,41.98785,US,Michigan
1035,VIDP,77.1031036377,28.5664997101,IN,NCT
1036,TLPL,-60.952599,13.7332,LC,Vieux-Fort
1037,ETAR,7.600279808,49.4369010925,DE,Rheinland-Pfalz
1038,EHRD,4.4372200966,51.9569015503,NL,South Holland
1039,EBLG,5.4432201385,50.6374015808,BE,Wallonia
1040,6NY2,,,,
1041,KIKK,-87.8462777777778,41.0713888888889,US,Illinois
1042,58KY,-85.3325555555556,38.1216583333333,US,Kentucky
1043,26MI,-85.3780730555555,42.92392,US,Michigan
1044,LEMG,-4.4991102219,36.6749000549,ES,Andalusia
1045,4TX8,-97.2239052777778,33.2487291666667,US,Texas
1047,KUUU,-71.2815439444444,41.53243975,US,Rhode Island
1049,CHD4,,,,
1052,KBIS,-100.7457375,46.7727338888889,US,North Dakota
1053,MGGT,-90.5274963379,14.5832996368,GT,Guatemala
1054,LEIB,1.3731199503,38.8728981018,ES,Balearic-Islands
1055,4OI7,,,,
1056,KHTO,,,,
1057,KTOI,-86.0138888888889,31.86,US,Alabama
1058,61OH,-81.2095455555556,41.1981116666667,US,Ohio
1060,KDAY,-84.2194122222222,39.9022522222222,US,Ohio
1061, KLAX,,,,
1062,1NY4,,,,
1063,06TE,-95.0272847222222,30.3129583333333,US,Texas
1064,IN50,,,,
1065,CSW6,,,,
1067,KVJI,-82.0333266944444,36.6871025277778,US,Virginia
1068,KBLV,-89.8351855555556,38.5451730555556,US,Illinois
1069,KLIT,-92.2247772222222,34.7294413888889,US,Arkansas
1071,39MN,,,,
1072,KSAN,-117.189663333333,32.7335627777778,US,California
1073,LFHJ,4.9136099815,45.6542015076,FR,Auvergne-Rhone-Alpes
1074,II32,-87.3813986111111,38.0492111111111,US,Indiana
1075,EGLF,-0.7763329744,51.2757987976,GB,England
1076,FD08,-80.1497666666667,26.4653513888889,US,Florida
1078,KSTL,-90.3700257222222,38.7486982222222,US,Missouri
1079,K3HO,-87.2639222222222,41.5559,US,Indiana
1080,KGED,-75.3593044444444,38.6876327777778,US,Delaware
1081,KFUL,-117.979784166667,33.8720141666667,US,California
1082,KMCO,-81.309,28.4293888888889,US,Florida
1083,1NK8,-75.841305,42.1917425,US,New York
1085,KTYQ,-86.2514444444444,40.0306666666667,US,Indiana
1086,15NC,-76.9738888888889,36.2397222222222,US,North Carolina
1087,KLOT,-88.0963897222222,41.6080969444444,US,Illinois
1088,6FD6,-81.4331233333333,28.9049886111111,US,Florida
1089,KEWB,-70.9578361111111,41.6765661111111,US,Massachusetts
1091,20II,,,,
1093,SDTB,-46.57472229,-23.1277770996,BR,São Paulo
1094,KCLW,-82.7590569444444,27.9772138888889,US,Florida
1095,KLEE,-81.8084175,28.8228980555556,US,Florida
1096,CRK2,,,,
1097,KGEG,-117.535222222222,47.6190277777778,US,Washington
1098,KW32,-76.9328169444445,38.7482613888889,US,Maryland
1099,KWHP,-118.413433055556,34.2593252777778,US,California
1100,94FL,-81.8973083333333,26.7328463888889,US,Florida
1101,KFFO,-84.0461028333333,39.8259705277778,US,Ohio
1102,KHEF,-77.5151011944444,38.7210230833333,US,Dist. Of Columbia
1103,PN01,-79.9058861111111,40.5881227777778,US,Pennsylvania
1104,KPBI,-80.0955919444444,26.6831616666667,US,Florida
1106,47MI,,,,
1107,KRDG,-75.9652472222222,40.3784986111111,US,Pennsylvania
1108, CYOW,,,,
1109,EGSS,0.2349999994,51.8849983215,GB,England
1110,VT26,-73.3067975,44.6344897222222,US,Vermont
1114,31MA,-72.4086111111111,42.2619444444444,US,Massachusetts
1115,EKAH,10.6190004349,56.2999992371,DK,Central Jutland
1117,KBAK,-85.8963388888889,39.261915,US,Indiana
1118,KCMH,-82.8921591666667,39.9969466666667,US,Ohio
1119,LL59,34.6907997131,31.8978996277,IL,
1120,31II,-84.9051972222222,38.9120861111111,US,Indiana
1121,KORL,-81.33293,28.5454616666667,US,Florida
1122,VT30,-72.8340036111111,44.1625594444444,US,Vermont
1123,SBBP,-46.5375,-22.979167,BR,São Paulo
1126,KAXQ,-79.4421666666667,41.2249444444444,US,Pennsylvania
1127,MPRH,-80.128333,8.373333,PA,Coclé
1128,VT15,-73.2459638888889,44.7039330555556,US,Vermont
1129,KBJC,-105.117194444444,39.9088055555556,US,Colorado
1131,56NC,-82.0319444444444,35.2066666666667,US,North Carolina
1132,CPT9,,,,
1134,82FL,,,,
1135,KSBN,-86.3173375,41.7082238888889,US,Indiana
1137,KCSG,-84.9388611111111,32.5163333333333,US,Georgia
1139,KUES,-88.2370555555556,43.0410277777778,US,Wisconsin
1142,NY09,,,,
1143,LOLW,14.0409002304,48.1833000183,AT,Upper-Austria
1144,03MA,-72.5520322222222,42.3931447222222,US,Massachusetts
1146,KRST,-92.5000277777778,43.9082777777778,US,Minnesota
1147,1XS1,-95.0464833333333,29.9382791666667,US,Texas
1148,FL88,-81.4497986111111,26.6836794444444,US,Florida
1149,EGGW,-0.3683330119,51.8746986389,GB,England
1150,EDMO,11.2831001282,48.081401825,DE,Bayern
1151,KIAG,-78.9458466666667,43.1075573611111,US,New York
1152,KGRR,-85.5228055555555,42.8808333333333,US,Michigan
1153,KHTW,-82.4948333333333,38.4191111111111,US,Ohio
1154,KDFW,-97.0376947222222,32.8972330555556,US,Texas
1155,MI13,-85.0616666666667,43.1616666666667,US,Michigan
1156,LTFM,28.752,41.275333,TR,Istanbul
1157,MA55,-70.2994644444444,41.3348436111111,US,Massachusetts
1158,KN52,-80.7479833333333,34.8638166666667,US,North Carolina
1159,LFGJ,5.4272499084,47.0390014648,FR,Bourgogne-Franche-Comte
1160,PA84,-76.9092611111111,39.9538194444444,US,Pennsylvania
1161,DABC,6.6203899384,36.2760009766,DZ,Constantine
1162,KPDX,-122.596869416667,45.5887088611111,US,Oregon
1163,KSYR,-76.1063055555556,43.1111944444444,US,New York
1164,KHHR,-118.335083333333,33.9228611111111,US,California
1165,KFWN,-74.6230352777778,41.2002138888889,US,New Jersey
1166,3NJ6,-74.8413333333333,40.0154722222222,US,New Jersey
1168,CT96,-72.9712152777778,41.7084313888889,US,Connecticut
1169,KY47,-83.6237013888889,42.5031238888889,US,Michigan
1170,KGON,-72.0451388888889,41.3300555555556,US,Connecticut
1172,FL59,-81.7103597222222,26.643405,US,Florida
1174,88WI,-87.8606530555555,44.5083269444444,US,Wisconsin
1176,2MI5,-85.4864113888889,42.9416963888889,US,Michigan
1177,CT14,-72.6162011111111,41.8667647222222,US,Connecticut
1178, NULL,,,,
1179,KDLZ,-83.1133836111111,40.2795421388889,US,Ohio
1180,KOPF,-80.2782222222222,25.9074166666667,US,Florida
1182,EDDF,8.543129921,50.0264015198,DE,Hesse
1183,LTBA,28.8145999908,40.9768981934,TR,Istanbul
1184,FD20,-81.4850766666667,26.8003419444444,US,Florida
1185,KRFD,-89.0972222222222,42.1953611111111,US,Illinois
1186,LIML,9.2767400742,45.445098877,IT,Lombardy
1187,50OH,-83.7446722222222,39.6803527777778,US,Ohio
1188,EDHI,9.8355560303,53.5352783203,DE,Hamburg
1189,KSUU,-121.924131472222,38.2645366666667,US,California
1190,KPJC,-80.1608611111111,40.8019722222222,US,Pennsylvania
1191,KDAL,-96.8508766666667,32.8459447222222,US,Texas
1193,1IN1,-86.6530583333333,39.48838,US,Indiana
1194,MBPV,-72.2658996582,21.7735996246,TC,
1195,KGRB,-88.1297133333333,44.4846336111111,US,Wisconsin
1196,KRUT,-72.9496261111111,43.5297302777778,US,Vermont
1197,CMN3,,,,
1198,KRAC,-87.8139166666667,42.7611666666667,US,Wisconsin
1199,93OH,,,,
1200,PS52,-78.8327997222222,40.1950769444444,US,Pennsylvania
1201,KBKV,-82.4554166666667,28.4736111111111,US,Florida
1202,KZER,-76.3737502777778,40.7067508333333,US,Pennsylvania
1203,VT38,-73.2466666666667,45.0091666666667,US,Vermont
1206,KPGD,-81.9908861111111,26.9185925,US,Florida
1207,FA69,-80.6372791666667,26.5878475,US,Florida
1208,NK79,-74.5330555555555,41.4066666666667,US,New York
1209,KGPI,-114.256,48.3105,US,Montana
1210,LEMD,-3.56676,40.4936,ES,Madrid
1211,KMJX,-74.2955347222222,39.9260416666667,US,New Jersey
1212,KOAJ,-77.6121388888889,34.8291666666667,US,North Carolina
1213,KJQF,-80.7091325,35.3877702777778,US,North Carolina
1215,EBBR,4.4844398499,50.9014015198,BE,Flanders
1216,KMCI,-94.7138888888889,39.2976111111111,US,Missouri
1217,KWAL,-75.4663888888889,37.9401944444444,US,Virginia
1218,K55Y,-91.830095,43.815825,US,Minnesota
1219,MA80,-72.8142627777778,42.1198147222222,US,Massachusetts
1220,KESN,-76.0689902777778,38.80416,US,Maryland
1221,CT51,,,,
1222,SC43,-82.3990122222222,34.5937258333333,US,South Carolina
1223,LOWL,14.1875,48.2332000732,AT,Upper-Austria
1225,LSZB,7.4971499443,46.914100647,CH,Bern
1228,KRYY,-84.5970277777778,34.0131666666667,US,Georgia
1229,VT42,-72.6070583333333,44.5125527777778,US,Vermont
1230,17FA,-81.5353558333333,26.7134011111111,US,Florida
1231,KCMA,-119.094354166667,34.2137583333333,US,California
1232,KCDW,-74.2813502777778,40.8752247222222,US,New Jersey
1233,OI41,-81.1561944444445,41.294,US,Ohio
